stop_id,stop_name,stop_lat,stop_lon,stop_url
1100,ACORÁN,28.4184,-16.3038,http://www.titsa.com/correspondencias.php?idc=1100
1101,ATABARA,28.4176,-16.3067,http://www.titsa.com/correspondencias.php?idc=1101
1102,AYOZE,28.4163,-16.3088,http://www.titsa.com/correspondencias.php?idc=1102
1103,ADONAI,28.4152,-16.3113,http://www.titsa.com/correspondencias.php?idc=1103
1104,POLÍGONO LA CAMPANA,28.4087,-16.3177,http://www.titsa.com/correspondencias.php?idc=1104
1105,HORIZONTE,28.4064,-16.3174,http://www.titsa.com/correspondencias.php?idc=1105
1106,BOCA CANGREJO,28.4062,-16.3161,http://www.titsa.com/correspondencias.php?idc=1106
1107,PLAYA LA NEA,28.4052,-16.3168,http://www.titsa.com/correspondencias.php?idc=1107
1108,BOCA CANGREJO,28.4061,-16.3161,http://www.titsa.com/correspondencias.php?idc=1108
1109,HORIZONTE,28.4062,-16.3176,http://www.titsa.com/correspondencias.php?idc=1109
1110,POLÍGONO LA CAMPANA,28.4086,-16.3176,http://www.titsa.com/correspondencias.php?idc=1110
1111,ADONAI,28.4152,-16.3112,http://www.titsa.com/correspondencias.php?idc=1111
1112,AYOZE,28.4161,-16.3086,http://www.titsa.com/correspondencias.php?idc=1112
1113,ATABARA,28.4178,-16.3065,http://www.titsa.com/correspondencias.php?idc=1113
1114,ACORÁN,28.4183,-16.3038,http://www.titsa.com/correspondencias.php?idc=1114
1115,RADAZUL,28.4068,-16.322,http://www.titsa.com/correspondencias.php?idc=1115
1118,EL CHARCO,28.3966,-16.344,http://www.titsa.com/correspondencias.php?idc=1118
1119,LAS ADELFAS,28.3978,-16.3482,http://www.titsa.com/correspondencias.php?idc=1119
1125,RADAZUL,28.406,-16.3228,http://www.titsa.com/correspondencias.php?idc=1125
1128,EL CHORRILLO,28.4099,-16.3287,http://www.titsa.com/correspondencias.php?idc=1128
1132,HERNÁNDEZ MARRERO (T),28.3988,-16.3518,http://www.titsa.com/correspondencias.php?idc=1132
1133,TACONILLO,28.3984,-16.3538,http://www.titsa.com/correspondencias.php?idc=1133
1134,APARTADERO,28.3972,-16.355,http://www.titsa.com/correspondencias.php?idc=1134
1135,LLANO LA ROSA,28.3981,-16.3567,http://www.titsa.com/correspondencias.php?idc=1135
1136,ALBERTO MARTELL,28.3955,-16.3565,http://www.titsa.com/correspondencias.php?idc=1136
1137,CEMENTERIO,28.3953,-16.3599,http://www.titsa.com/correspondencias.php?idc=1137
1138,LA ANGOSTURA,28.3966,-16.3609,http://www.titsa.com/correspondencias.php?idc=1138
1139,CRUZ LOS CANTOS (T),28.3991,-16.3607,http://www.titsa.com/correspondencias.php?idc=1139
1140,LA ANGOSTURA,28.3966,-16.361,http://www.titsa.com/correspondencias.php?idc=1140
1141,CEMENTERIO,28.3952,-16.36,http://www.titsa.com/correspondencias.php?idc=1141
1142,ALBERTO MARTELL,28.3957,-16.3565,http://www.titsa.com/correspondencias.php?idc=1142
1143,LLANO LA ROSA,28.398,-16.3566,http://www.titsa.com/correspondencias.php?idc=1143
1144,APARTADERO,28.3974,-16.3549,http://www.titsa.com/correspondencias.php?idc=1144
1145,TACONILLO,28.3984,-16.3537,http://www.titsa.com/correspondencias.php?idc=1145
1146,HERNÁNDEZ MARRERO (T),28.3987,-16.3517,http://www.titsa.com/correspondencias.php?idc=1146
1151,SANTA MARÍA DEL MAR (T),28.4253,-16.3044,http://www.titsa.com/correspondencias.php?idc=1151
1152,LAS ACACIAS,28.4049,-16.324,http://www.titsa.com/correspondencias.php?idc=1152
1153,CENTRO COMERCIAL,28.4028,-16.3247,http://www.titsa.com/correspondencias.php?idc=1153
1154,JUAN SEBASTIÁN EL CANO,28.403,-16.3206,http://www.titsa.com/correspondencias.php?idc=1154
1155,PLAYA LA NEA,28.4023,-16.3195,http://www.titsa.com/correspondencias.php?idc=1155
1156,JUAN SEBASTIÁN EL CANO,28.4032,-16.32,http://www.titsa.com/correspondencias.php?idc=1156
1157,CENTRO COMERCIAL,28.4029,-16.3245,http://www.titsa.com/correspondencias.php?idc=1157
1158,OQUENDO,28.4037,-16.3258,http://www.titsa.com/correspondencias.php?idc=1158
1159,LAS ACACIAS,28.4049,-16.3231,http://www.titsa.com/correspondencias.php?idc=1159
1160,PARAISO,28.4066,-16.3249,http://www.titsa.com/correspondencias.php?idc=1160
1161,CORTÉS,28.4087,-16.3257,http://www.titsa.com/correspondencias.php?idc=1161
1162,RADAZUL ALTO,28.4097,-16.3277,http://www.titsa.com/correspondencias.php?idc=1162
1163,LLANO BLANCO,28.411,-16.3292,http://www.titsa.com/correspondencias.php?idc=1163
1164,1 DE MAYO,28.4124,-16.3314,http://www.titsa.com/correspondencias.php?idc=1164
1165,COLEGIO ALEMAN,28.4108,-16.3355,http://www.titsa.com/correspondencias.php?idc=1165
1166,BREZO,28.4097,-16.3356,http://www.titsa.com/correspondencias.php?idc=1166
1167,CODESO,28.4102,-16.3327,http://www.titsa.com/correspondencias.php?idc=1167
1168,DRAGO,28.4099,-16.3305,http://www.titsa.com/correspondencias.php?idc=1168
1169,TARAJAL,28.408,-16.3303,http://www.titsa.com/correspondencias.php?idc=1169
1170,VERODES,28.4068,-16.3305,http://www.titsa.com/correspondencias.php?idc=1170
1171,VERODES,28.4067,-16.3305,http://www.titsa.com/correspondencias.php?idc=1171
1172,TARAJAL,28.4081,-16.33,http://www.titsa.com/correspondencias.php?idc=1172
1173,RADAZUL ALTO,28.4097,-16.3279,http://www.titsa.com/correspondencias.php?idc=1173
1174,CORTÉS,28.4086,-16.3257,http://www.titsa.com/correspondencias.php?idc=1174
1175,PARAISO,28.4066,-16.3248,http://www.titsa.com/correspondencias.php?idc=1175
1176,VIOLETA,28.4069,-16.3323,http://www.titsa.com/correspondencias.php?idc=1176
1177,VIOLETA,28.407,-16.3325,http://www.titsa.com/correspondencias.php?idc=1177
1178,ESPAÑA,28.4044,-16.333,http://www.titsa.com/correspondencias.php?idc=1178
1179,TABAIBA,28.4035,-16.3318,http://www.titsa.com/correspondencias.php?idc=1179
1180,ESPAÑA,28.4041,-16.3332,http://www.titsa.com/correspondencias.php?idc=1180
1183,CARRETERA SAN LÁZARO,28.4902,-16.3287,http://www.titsa.com/correspondencias.php?idc=1183
1184,EL GOFIO,28.4901,-16.3334,http://www.titsa.com/correspondencias.php?idc=1184
1185,ECLIPSE DE SOL,28.4897,-16.3403,http://www.titsa.com/correspondencias.php?idc=1185
1186,EL PÚLPITO (T),28.49,-16.3493,http://www.titsa.com/correspondencias.php?idc=1186
1187,EL PORTEZUELO (T),28.49,-16.3526,http://www.titsa.com/correspondencias.php?idc=1187
1188,MOLINO VIEJO,28.4908,-16.3554,http://www.titsa.com/correspondencias.php?idc=1188
1189,LA CRUZ CHICA (T),28.4914,-16.362,http://www.titsa.com/correspondencias.php?idc=1189
1190,GUAMASA,28.4923,-16.3669,http://www.titsa.com/correspondencias.php?idc=1190
1191,EL CANDIL,28.492,-16.3712,http://www.titsa.com/correspondencias.php?idc=1191
1192,EL BOQUERÓN (T),28.4912,-16.3755,http://www.titsa.com/correspondencias.php?idc=1192
1193,EL RODEO,28.4894,-16.3803,http://www.titsa.com/correspondencias.php?idc=1193
1194,EL TRAZO (T),28.4875,-16.3867,http://www.titsa.com/correspondencias.php?idc=1194
1195,LOS NARANJEROS (T),28.4866,-16.3899,http://www.titsa.com/correspondencias.php?idc=1195
1196,NUEVO LAUREL,28.486,-16.3929,http://www.titsa.com/correspondencias.php?idc=1196
1197,LOMO COLORADO,28.4864,-16.3957,http://www.titsa.com/correspondencias.php?idc=1197
1199,PEDRO FELIPE,28.4856,-16.4026,http://www.titsa.com/correspondencias.php?idc=1199
1200,VALERIO PADRÓN,28.4834,-16.406,http://www.titsa.com/correspondencias.php?idc=1200
1201,CARRETERA TEJINA,28.4847,-16.4103,http://www.titsa.com/correspondencias.php?idc=1201
1202,EL POLE,28.4846,-16.4114,http://www.titsa.com/correspondencias.php?idc=1202
1203,EL CALVARIO,28.4843,-16.4134,http://www.titsa.com/correspondencias.php?idc=1203
1204,CEMENTERIO,28.483,-16.4159,http://www.titsa.com/correspondencias.php?idc=1204
1205,SANTA CATALINA (T),28.4831,-16.4181,http://www.titsa.com/correspondencias.php?idc=1205
1206,LAS TOSCAS,28.4836,-16.423,http://www.titsa.com/correspondencias.php?idc=1206
1207,LOS GUANCHES,28.4831,-16.4265,http://www.titsa.com/correspondencias.php?idc=1207
1208,LA PIEDAD,28.4815,-16.429,http://www.titsa.com/correspondencias.php?idc=1208
1209,OLIMPIA,28.4801,-16.4308,http://www.titsa.com/correspondencias.php?idc=1209
1211,EL SAUZAL (T),28.4794,-16.4368,http://www.titsa.com/correspondencias.php?idc=1211
1212,LOS ANGELES,28.4724,-16.4396,http://www.titsa.com/correspondencias.php?idc=1212
1213,PRIMAVERA,28.4716,-16.4408,http://www.titsa.com/correspondencias.php?idc=1213
1214,FRANCISCO CRUZ DÍAZ,28.4696,-16.4421,http://www.titsa.com/correspondencias.php?idc=1214
1215,LOS PERALES (T),28.468,-16.4434,http://www.titsa.com/correspondencias.php?idc=1215
1216,FRANCISCO CRUZ DÍAZ,28.4695,-16.4421,http://www.titsa.com/correspondencias.php?idc=1216
1217,LOS ANGELES,28.4724,-16.4395,http://www.titsa.com/correspondencias.php?idc=1217
1218,EL SAUZAL (T),28.4793,-16.4367,http://www.titsa.com/correspondencias.php?idc=1218
1219,CENTRO DE SALUD,28.4799,-16.4345,http://www.titsa.com/correspondencias.php?idc=1219
1220,OLIMPIA,28.48,-16.4313,http://www.titsa.com/correspondencias.php?idc=1220
1221,LA PIEDAD,28.4816,-16.4289,http://www.titsa.com/correspondencias.php?idc=1221
1222,LOS GUANCHES,28.483,-16.4268,http://www.titsa.com/correspondencias.php?idc=1222
1223,LAS TOSCAS,28.4834,-16.4231,http://www.titsa.com/correspondencias.php?idc=1223
1224,SANTA CATALINA  (T),28.483,-16.418,http://www.titsa.com/correspondencias.php?idc=1224
1225,CEMENTERIO,28.483,-16.4158,http://www.titsa.com/correspondencias.php?idc=1225
1226,EL CALVARIO,28.4841,-16.4134,http://www.titsa.com/correspondencias.php?idc=1226
1227,EL POLE,28.4845,-16.4114,http://www.titsa.com/correspondencias.php?idc=1227
1228,CARRETERA TEJINA,28.4846,-16.4102,http://www.titsa.com/correspondencias.php?idc=1228
1229,VALERIO PADRÓN,28.4833,-16.406,http://www.titsa.com/correspondencias.php?idc=1229
1230,PEDRO FELIPE,28.4855,-16.4023,http://www.titsa.com/correspondencias.php?idc=1230
1231,EL TORREÓN,28.4859,-16.399,http://www.titsa.com/correspondencias.php?idc=1231
1232,LOMO COLORADO,28.4862,-16.3965,http://www.titsa.com/correspondencias.php?idc=1232
1233,NUEVO LAUREL,28.4854,-16.3921,http://www.titsa.com/correspondencias.php?idc=1233
1234,LOS NARANJEROS (T),28.4865,-16.3899,http://www.titsa.com/correspondencias.php?idc=1234
1235,EL TRAZO (T),28.4875,-16.3865,http://www.titsa.com/correspondencias.php?idc=1235
1236,EL RODEO,28.4893,-16.3803,http://www.titsa.com/correspondencias.php?idc=1236
1237,EL BOQUERÓN (T),28.491,-16.3757,http://www.titsa.com/correspondencias.php?idc=1237
1238,EL CANDIL,28.4917,-16.3715,http://www.titsa.com/correspondencias.php?idc=1238
1239,GUAMASA,28.4922,-16.3669,http://www.titsa.com/correspondencias.php?idc=1239
1240,LA CRUZ CHICA (T),28.4913,-16.3622,http://www.titsa.com/correspondencias.php?idc=1240
1241,MOLINO VIEJO,28.4906,-16.3554,http://www.titsa.com/correspondencias.php?idc=1241
1242,EL PORTEZUELO (T),28.4899,-16.3526,http://www.titsa.com/correspondencias.php?idc=1242
1243,NUEVO LAUREL,28.4853,-16.3917,http://www.titsa.com/correspondencias.php?idc=1243
1244,EL LLANO,28.4828,-16.3957,http://www.titsa.com/correspondencias.php?idc=1244
1245,EL TORREÓN,28.4811,-16.4,http://www.titsa.com/correspondencias.php?idc=1245
1246,EL CANTILLO (T),28.4795,-16.4031,http://www.titsa.com/correspondencias.php?idc=1246
1247,CORREOS,28.4783,-16.4073,http://www.titsa.com/correspondencias.php?idc=1247
1248,SEBASTIÁN MACHADO,28.4779,-16.4108,http://www.titsa.com/correspondencias.php?idc=1248
1249,PLAZA DE LA ESTACIÓN (T),28.4767,-16.4154,http://www.titsa.com/correspondencias.php?idc=1249
1250,LA FRONTERA,28.4748,-16.4194,http://www.titsa.com/correspondencias.php?idc=1250
1251,EL MONTILLO,28.4731,-16.4239,http://www.titsa.com/correspondencias.php?idc=1251
1252,LUIS DIEGO CUSCOY,28.4739,-16.4274,http://www.titsa.com/correspondencias.php?idc=1252
1253,EL LAGAR (T),28.4721,-16.4323,http://www.titsa.com/correspondencias.php?idc=1253
1254,LAS MEJÍAS,28.4712,-16.4332,http://www.titsa.com/correspondencias.php?idc=1254
1255,HERRERA,28.4752,-16.4335,http://www.titsa.com/correspondencias.php?idc=1255
1256,LAS MACETAS,28.4751,-16.4346,http://www.titsa.com/correspondencias.php?idc=1256
1257,SAN NICOLÁS,28.4772,-16.4333,http://www.titsa.com/correspondencias.php?idc=1257
1258,EL CALVARIO,28.4799,-16.4316,http://www.titsa.com/correspondencias.php?idc=1258
1259,EL CALVARIO,28.4799,-16.4317,http://www.titsa.com/correspondencias.php?idc=1259
1260,SAN NICOLÁS,28.4772,-16.4335,http://www.titsa.com/correspondencias.php?idc=1260
1261,LAS MACETAS,28.475,-16.4345,http://www.titsa.com/correspondencias.php?idc=1261
1262,HERRERA,28.4752,-16.4337,http://www.titsa.com/correspondencias.php?idc=1262
1263,LAS MEJÍAS,28.4708,-16.4335,http://www.titsa.com/correspondencias.php?idc=1263
1264,EL LAGAR (T),28.4719,-16.4323,http://www.titsa.com/correspondencias.php?idc=1264
1265,LUIS DIEGO CUSCOY,28.4738,-16.4273,http://www.titsa.com/correspondencias.php?idc=1265
1266,EL MONTILLO,28.473,-16.4239,http://www.titsa.com/correspondencias.php?idc=1266
1267,LA FRONTERA,28.4747,-16.4194,http://www.titsa.com/correspondencias.php?idc=1267
1268,PLAZA DE LA ESTACIÓN (T),28.477,-16.4149,http://www.titsa.com/correspondencias.php?idc=1268
1269,SEBASTIÁN MACHADO,28.4779,-16.4107,http://www.titsa.com/correspondencias.php?idc=1269
1270,CORREOS,28.4783,-16.4075,http://www.titsa.com/correspondencias.php?idc=1270
1271,EL CANTILLO (T),28.4787,-16.4037,http://www.titsa.com/correspondencias.php?idc=1271
1272,EL TORREÓN,28.4813,-16.3992,http://www.titsa.com/correspondencias.php?idc=1272
1273,EL LLANO,28.4832,-16.395,http://www.titsa.com/correspondencias.php?idc=1273
1274,NUEVO LAUREL,28.4851,-16.3918,http://www.titsa.com/correspondencias.php?idc=1274
1275,EL PÚLPITO,28.49,-16.3487,http://www.titsa.com/correspondencias.php?idc=1275
1279,CHAMBERÍ,28.4524,-16.2748,http://www.titsa.com/correspondencias.php?idc=1279
1280,HOSPITAL LA CANDELARIA,28.4479,-16.2839,http://www.titsa.com/correspondencias.php?idc=1280
1281,NUEVO OBRERO,28.4479,-16.2908,http://www.titsa.com/correspondencias.php?idc=1281
1282,HOSPITAL UNIVERSITARIO,28.4569,-16.2938,http://www.titsa.com/correspondencias.php?idc=1282
1283,ANDRÓMEDA,28.4701,-16.3071,http://www.titsa.com/correspondencias.php?idc=1283
1288,SAN ANTONIO,28.4871,-16.324,http://www.titsa.com/correspondencias.php?idc=1288
1290,SAN BENITO,28.4899,-16.3266,http://www.titsa.com/correspondencias.php?idc=1290
1291,MARCOS REDONDO,28.4926,-16.322,http://www.titsa.com/correspondencias.php?idc=1291
1292,PASEO DE LOS ORAMAS,28.4955,-16.3194,http://www.titsa.com/correspondencias.php?idc=1292
1293,POZO CABILDO,28.499,-16.3151,http://www.titsa.com/correspondencias.php?idc=1293
1294,REPÚBLICA ARGENTINA,28.5027,-16.3125,http://www.titsa.com/correspondencias.php?idc=1294
1298,LA GORGOLANA,28.514,-16.3083,http://www.titsa.com/correspondencias.php?idc=1298
1299,EL PALOMAR,28.5147,-16.3152,http://www.titsa.com/correspondencias.php?idc=1299
1300,PEDRO ÁLVAREZ,28.5178,-16.3226,http://www.titsa.com/correspondencias.php?idc=1300
1301,I. NUEVAS TECNOLOGÍAS,28.5193,-16.3281,http://www.titsa.com/correspondencias.php?idc=1301
1302,LOS LAURELES,28.5192,-16.3317,http://www.titsa.com/correspondencias.php?idc=1302
1303,TEGUESTE,28.5212,-16.3367,http://www.titsa.com/correspondencias.php?idc=1303
1304,CAMINO VIEJO,28.5225,-16.3424,http://www.titsa.com/correspondencias.php?idc=1304
1305,LAS TOSCAS,28.5232,-16.346,http://www.titsa.com/correspondencias.php?idc=1305
1306,EL SOCORRO,28.5239,-16.349,http://www.titsa.com/correspondencias.php?idc=1306
1307,TAMARCO (T),28.5246,-16.3515,http://www.titsa.com/correspondencias.php?idc=1307
1308,CUEVA JURADA,28.5279,-16.3533,http://www.titsa.com/correspondencias.php?idc=1308
1309,LA ASOMADA,28.5294,-16.3567,http://www.titsa.com/correspondencias.php?idc=1309
1310,PATA RAJADA,28.53,-16.3595,http://www.titsa.com/correspondencias.php?idc=1310
1311,EL CEMENTERIO,28.5319,-16.3595,http://www.titsa.com/correspondencias.php?idc=1311
1312,TOMÁS GONZÁLEZ RIVERO,28.5342,-16.3606,http://www.titsa.com/correspondencias.php?idc=1312
1313,EL PUENTE,28.536,-16.3587,http://www.titsa.com/correspondencias.php?idc=1313
1314,FINCA JOVER,28.5429,-16.3559,http://www.titsa.com/correspondencias.php?idc=1314
1315,CLUB NAUTICO,28.5446,-16.3528,http://www.titsa.com/correspondencias.php?idc=1315
1316,PORLIER,28.5453,-16.3505,http://www.titsa.com/correspondencias.php?idc=1316
1317,EL RIEGO,28.5508,-16.3488,http://www.titsa.com/correspondencias.php?idc=1317
1318,BAJAMAR,28.5538,-16.3448,http://www.titsa.com/correspondencias.php?idc=1318
1319,EL SOL,28.5556,-16.3413,http://www.titsa.com/correspondencias.php?idc=1319
1320,NEPTUNO,28.5554,-16.3382,http://www.titsa.com/correspondencias.php?idc=1320
1321,CUESTA SABANDA,28.5597,-16.3321,http://www.titsa.com/correspondencias.php?idc=1321
1322,LA HOYA,28.564,-16.3309,http://www.titsa.com/correspondencias.php?idc=1322
1323,LA PUNTA,28.5673,-16.3285,http://www.titsa.com/correspondencias.php?idc=1323
1324,SAN MATEOS,28.5687,-16.3251,http://www.titsa.com/correspondencias.php?idc=1324
1325,EL CASTILLO,28.5693,-16.3235,http://www.titsa.com/correspondencias.php?idc=1325
1326,EL TANQUE,28.5695,-16.3197,http://www.titsa.com/correspondencias.php?idc=1326
1327,PUNTA DEL HIDALGO,28.5708,-16.3184,http://www.titsa.com/correspondencias.php?idc=1327
1328,EL TANQUE,28.5695,-16.32,http://www.titsa.com/correspondencias.php?idc=1328
1329,EL CASTILLO,28.5693,-16.3236,http://www.titsa.com/correspondencias.php?idc=1329
1330,SAN MATEO,28.5687,-16.3253,http://www.titsa.com/correspondencias.php?idc=1330
1331,LA PUNTA,28.5667,-16.3288,http://www.titsa.com/correspondencias.php?idc=1331
1332,LA HOYA,28.5642,-16.3307,http://www.titsa.com/correspondencias.php?idc=1332
1333,CUESTA SABANDA,28.5598,-16.3322,http://www.titsa.com/correspondencias.php?idc=1333
1334,NEPTUNO,28.5554,-16.338,http://www.titsa.com/correspondencias.php?idc=1334
1335,EL SOL,28.5556,-16.3417,http://www.titsa.com/correspondencias.php?idc=1335
1336,BAJAMAR,28.5538,-16.3449,http://www.titsa.com/correspondencias.php?idc=1336
1337,EL RIEGO,28.5507,-16.349,http://www.titsa.com/correspondencias.php?idc=1337
1338,PORLIER,28.5454,-16.3508,http://www.titsa.com/correspondencias.php?idc=1338
1339,CLUB NAUTICO,28.5447,-16.353,http://www.titsa.com/correspondencias.php?idc=1339
1340,FINCA JOVER,28.543,-16.3559,http://www.titsa.com/correspondencias.php?idc=1340
1341,EL PUENTE,28.5362,-16.3588,http://www.titsa.com/correspondencias.php?idc=1341
1342,TEJINA,28.5351,-16.3609,http://www.titsa.com/correspondencias.php?idc=1342
1343,EL RAMAL (T),28.5334,-16.362,http://www.titsa.com/correspondencias.php?idc=1343
1344,EL CEMENTERIO,28.5321,-16.3596,http://www.titsa.com/correspondencias.php?idc=1344
1345,PATA RAJADA,28.5299,-16.3596,http://www.titsa.com/correspondencias.php?idc=1345
1346,LA ASOMADA,28.5292,-16.3561,http://www.titsa.com/correspondencias.php?idc=1346
1347,CUEVA JURADA,28.5263,-16.3524,http://www.titsa.com/correspondencias.php?idc=1347
1348,TAMARCO (T),28.5241,-16.3508,http://www.titsa.com/correspondencias.php?idc=1348
1349,EL SOCORRO,28.5238,-16.3494,http://www.titsa.com/correspondencias.php?idc=1349
1350,LAS TOSCAS,28.5231,-16.346,http://www.titsa.com/correspondencias.php?idc=1350
1351,CAMINO VIEJO,28.5225,-16.3425,http://www.titsa.com/correspondencias.php?idc=1351
1352,TEGUESTE,28.5213,-16.3375,http://www.titsa.com/correspondencias.php?idc=1352
1353,LOS LAURELES,28.5191,-16.3315,http://www.titsa.com/correspondencias.php?idc=1353
1354,NUEVAS TECNOLOGÍAS,28.5192,-16.3282,http://www.titsa.com/correspondencias.php?idc=1354
1355,PEDRO ÁLVAREZ,28.5178,-16.3225,http://www.titsa.com/correspondencias.php?idc=1355
1356,EL PALOMAR,28.5145,-16.315,http://www.titsa.com/correspondencias.php?idc=1356
1357,LA GORGOLANA,28.5138,-16.3092,http://www.titsa.com/correspondencias.php?idc=1357
1361,REPÚBLICA ARGENTINA,28.503,-16.3125,http://www.titsa.com/correspondencias.php?idc=1361
1363,PARQUE DE LA VEGA,28.4958,-16.3136,http://www.titsa.com/correspondencias.php?idc=1363
1364,PLAZA DEL CRISTO,28.4929,-16.314,http://www.titsa.com/correspondencias.php?idc=1364
1365,TABARES DE CALA,28.4906,-16.3147,http://www.titsa.com/correspondencias.php?idc=1365
1366,DEÁN PALAHI,28.4886,-16.3155,http://www.titsa.com/correspondencias.php?idc=1366
1369,CAMPUS,28.4809,-16.3132,http://www.titsa.com/correspondencias.php?idc=1369
1370,IES LA LABORAL,28.4781,-16.313,http://www.titsa.com/correspondencias.php?idc=1370
1371,ANDRÓMEDA,28.4699,-16.3077,http://www.titsa.com/correspondencias.php?idc=1371
1372,SANTIAGO MARTÍN,28.4581,-16.2955,http://www.titsa.com/correspondencias.php?idc=1372
1373,HOSPITAL UNIVERSITARIO,28.4548,-16.2922,http://www.titsa.com/correspondencias.php?idc=1373
1374,NUEVO OBRERO,28.4466,-16.2897,http://www.titsa.com/correspondencias.php?idc=1374
1375,HOSPITAL LA CANDELARIA,28.4475,-16.2842,http://www.titsa.com/correspondencias.php?idc=1375
1376,CEMENTERIO,28.4507,-16.2771,http://www.titsa.com/correspondencias.php?idc=1376
1378,MANUEL HERMOSO ROJAS,28.4568,-16.2609,http://www.titsa.com/correspondencias.php?idc=1378
1381,OFRA,28.4603,-16.2825,http://www.titsa.com/correspondencias.php?idc=1381
1382,VISTABELLA (T),28.4659,-16.2829,http://www.titsa.com/correspondencias.php?idc=1382
1383,LA CUESTA (T),28.4682,-16.2866,http://www.titsa.com/correspondencias.php?idc=1383
1384,TABARES,28.4691,-16.29,http://www.titsa.com/correspondencias.php?idc=1384
1385,LA HIGUERITA,28.4696,-16.2937,http://www.titsa.com/correspondencias.php?idc=1385
1386,EL CHARCÓN,28.4705,-16.2973,http://www.titsa.com/correspondencias.php?idc=1386
1387,FINCA ESPAÑA,28.4727,-16.3005,http://www.titsa.com/correspondencias.php?idc=1387
1388,CHORRO DE GRACIA (T),28.4738,-16.3041,http://www.titsa.com/correspondencias.php?idc=1388
1389,MENCEY BENCOMO,28.4755,-16.3077,http://www.titsa.com/correspondencias.php?idc=1389
1390,MUSEO DE LA CIENCIA,28.4773,-16.3101,http://www.titsa.com/correspondencias.php?idc=1390
1391,LOS MENCEYES,28.4783,-16.3112,http://www.titsa.com/correspondencias.php?idc=1391
1394,CENTRO DE MENORES,28.4942,-16.2942,http://www.titsa.com/correspondencias.php?idc=1394
1401,LOS MENCEYES,28.4787,-16.3117,http://www.titsa.com/correspondencias.php?idc=1401
1402,MUSEO DE LA CIENCIA,28.4771,-16.3104,http://www.titsa.com/correspondencias.php?idc=1402
1403,MENCEY BENCOMO,28.4751,-16.3076,http://www.titsa.com/correspondencias.php?idc=1403
1404,CHORRO DE GRACIA (T),28.4737,-16.3043,http://www.titsa.com/correspondencias.php?idc=1404
1405,FINCA ESPAÑA,28.4722,-16.3002,http://www.titsa.com/correspondencias.php?idc=1405
1406,EL CHARCÓN,28.4703,-16.2973,http://www.titsa.com/correspondencias.php?idc=1406
1407,LA HIGUERITA,28.4694,-16.2938,http://www.titsa.com/correspondencias.php?idc=1407
1408,TABARES,28.4689,-16.2899,http://www.titsa.com/correspondencias.php?idc=1408
1409,LA CUESTA (T),28.4679,-16.2863,http://www.titsa.com/correspondencias.php?idc=1409
1410,VISTABELLA (T),28.4667,-16.2835,http://www.titsa.com/correspondencias.php?idc=1410
1416,HOSPITAL GENERAL,28.4581,-16.2927,http://www.titsa.com/correspondencias.php?idc=1416
1417,LAS TORRES,28.4547,-16.2932,http://www.titsa.com/correspondencias.php?idc=1417
1419,PLAZA SAN JERONIMO,28.4483,-16.2978,http://www.titsa.com/correspondencias.php?idc=1419
1420,CRUCE DE TACO,28.4466,-16.2996,http://www.titsa.com/correspondencias.php?idc=1420
1422,LOS CHARCOS,28.4466,-16.2973,http://www.titsa.com/correspondencias.php?idc=1422
1424,EL POLVORÍN,28.4483,-16.2957,http://www.titsa.com/correspondencias.php?idc=1424
1438,GRAN TINERFE,28.4494,-16.2967,http://www.titsa.com/correspondencias.php?idc=1438
1440,SAN AMADEO,28.4518,-16.2984,http://www.titsa.com/correspondencias.php?idc=1440
1441,SAN MIGUEL DE CHIMISAY,28.4528,-16.2992,http://www.titsa.com/correspondencias.php?idc=1441
1442,SAN DAMIÁN,28.4524,-16.3004,http://www.titsa.com/correspondencias.php?idc=1442
1443,LUIS FRANCO CASCÓN,28.4512,-16.3021,http://www.titsa.com/correspondencias.php?idc=1443
1444,COLEGIO LOS ANDENES,28.4497,-16.3047,http://www.titsa.com/correspondencias.php?idc=1444
1445,SOROLLA,28.4483,-16.3061,http://www.titsa.com/correspondencias.php?idc=1445
1446,VOLCÁN TINGUATÓN,28.4445,-16.3103,http://www.titsa.com/correspondencias.php?idc=1446
1447,TABOBO,28.4423,-16.3136,http://www.titsa.com/correspondencias.php?idc=1447
1448,EL SOBRADILLO,28.4407,-16.3157,http://www.titsa.com/correspondencias.php?idc=1448
1449,SUERTE GENETO,28.4385,-16.3184,http://www.titsa.com/correspondencias.php?idc=1449
1450,LA MONJA,28.4358,-16.3198,http://www.titsa.com/correspondencias.php?idc=1450
1451,EL QUEQUE,28.434,-16.3203,http://www.titsa.com/correspondencias.php?idc=1451
1452,LA MONJA,28.4359,-16.3195,http://www.titsa.com/correspondencias.php?idc=1452
1453,SUERTE GENETO,28.4385,-16.3181,http://www.titsa.com/correspondencias.php?idc=1453
1454,EL SOBRADILLO,28.4405,-16.3154,http://www.titsa.com/correspondencias.php?idc=1454
1455,TABOBO,28.4421,-16.3135,http://www.titsa.com/correspondencias.php?idc=1455
1456,VOLCÁN TINGUATÓN,28.4446,-16.3098,http://www.titsa.com/correspondencias.php?idc=1456
1457,SOROLLA,28.4477,-16.3064,http://www.titsa.com/correspondencias.php?idc=1457
1458,COLEGIO LOS ANDENES,28.4498,-16.3043,http://www.titsa.com/correspondencias.php?idc=1458
1460,LUIS FRANCO CASCÓN,28.4512,-16.3017,http://www.titsa.com/correspondencias.php?idc=1460
1461,SAN MIGUEL DE CHIMISAY,28.4527,-16.2992,http://www.titsa.com/correspondencias.php?idc=1461
1463,SAN AMADEO,28.4512,-16.2979,http://www.titsa.com/correspondencias.php?idc=1463
1464,GRAN TINERFE,28.4493,-16.2967,http://www.titsa.com/correspondencias.php?idc=1464
1473,SAN ANDRES,28.5034,-16.193,http://www.titsa.com/correspondencias.php?idc=1473
1475,EL CERCADO DE ANDRÉS,28.5074,-16.1922,http://www.titsa.com/correspondencias.php?idc=1475
1476,TARAJALES,28.5219,-16.1935,http://www.titsa.com/correspondencias.php?idc=1476
1477,LOS ROQUES,28.5299,-16.1942,http://www.titsa.com/correspondencias.php?idc=1477
1478,CHO EUGENIO,28.5411,-16.2002,http://www.titsa.com/correspondencias.php?idc=1478
1479,DELFINO,28.5418,-16.1967,http://www.titsa.com/correspondencias.php?idc=1479
1480,LA FILIPINA,28.543,-16.1953,http://www.titsa.com/correspondencias.php?idc=1480
1481,PAIBA,28.5451,-16.1963,http://www.titsa.com/correspondencias.php?idc=1481
1482,EL CUCHILLO,28.5445,-16.2047,http://www.titsa.com/correspondencias.php?idc=1482
1483,CRUCE  EL BAILADERO,28.5476,-16.207,http://www.titsa.com/correspondencias.php?idc=1483
1484,EL BAILADERO,28.5501,-16.2045,http://www.titsa.com/correspondencias.php?idc=1484
1485,DEGOLLADA DE PAIBA,28.5504,-16.1969,http://www.titsa.com/correspondencias.php?idc=1485
1487,LA ENSILLADA,28.5563,-16.1795,http://www.titsa.com/correspondencias.php?idc=1487
1491,LAS BODEGAS,28.5633,-16.1557,http://www.titsa.com/correspondencias.php?idc=1491
1492,LA CUMBRILLA,28.5656,-16.1559,http://www.titsa.com/correspondencias.php?idc=1492
1494,COLEGIO CHAMORGA,28.5687,-16.1569,http://www.titsa.com/correspondencias.php?idc=1494
1496,CHAMORGA,28.5685,-16.1596,http://www.titsa.com/correspondencias.php?idc=1496
1499,COLEGIO CHAMORGA,28.5686,-16.1569,http://www.titsa.com/correspondencias.php?idc=1499
1502,LA CUMBRILLA,28.5656,-16.1561,http://www.titsa.com/correspondencias.php?idc=1502
1505,LAS DELICIAS,28.4536,-16.2798,http://www.titsa.com/correspondencias.php?idc=1505
1506,CABRITAS,28.4515,-16.2822,http://www.titsa.com/correspondencias.php?idc=1506
1507,HOSPITAL LA CANDELARIA,28.4499,-16.2844,http://www.titsa.com/correspondencias.php?idc=1507
1508,NUEVO OBRERO,28.4475,-16.2897,http://www.titsa.com/correspondencias.php?idc=1508
1509,FUERTEVENTURA,28.4466,-16.2928,http://www.titsa.com/correspondencias.php?idc=1509
1510,SAN JOSE OBRERO (T),28.4466,-16.2949,http://www.titsa.com/correspondencias.php?idc=1510
1511,LA ENSILLADA,28.5562,-16.1798,http://www.titsa.com/correspondencias.php?idc=1511
1512,DEGOLLADA DE PAIBA,28.5505,-16.1969,http://www.titsa.com/correspondencias.php?idc=1512
1515,CONCORDE,28.4434,-16.3013,http://www.titsa.com/correspondencias.php?idc=1515
1516,EL BAILADERO,28.5501,-16.2051,http://www.titsa.com/correspondencias.php?idc=1516
1517,CRUCE  EL BAILADERO,28.5475,-16.2069,http://www.titsa.com/correspondencias.php?idc=1517
1518,MAXIMINO BACALLADO,28.4411,-16.3027,http://www.titsa.com/correspondencias.php?idc=1518
1519,EL MOLINO,28.4379,-16.3056,http://www.titsa.com/correspondencias.php?idc=1519
1520,LOS PEREGRINOS (T),28.4357,-16.3078,http://www.titsa.com/correspondencias.php?idc=1520
1521,SIMÚN,28.4337,-16.311,http://www.titsa.com/correspondencias.php?idc=1521
1522,EL TUNEL,28.5477,-16.2031,http://www.titsa.com/correspondencias.php?idc=1522
1524,CUATRO CAMINOS,28.4246,-16.3177,http://www.titsa.com/correspondencias.php?idc=1524
1525,EL CHORRILLO,28.4229,-16.319,http://www.titsa.com/correspondencias.php?idc=1525
1526,POLÍGONO LA CAMPANA,28.4206,-16.3206,http://www.titsa.com/correspondencias.php?idc=1526
1527,LA ALBAHACA,28.4182,-16.3258,http://www.titsa.com/correspondencias.php?idc=1527
1528,LA FAJANETA,28.5568,-16.2122,http://www.titsa.com/correspondencias.php?idc=1528
1529,ASPERLUA,28.4195,-16.3277,http://www.titsa.com/correspondencias.php?idc=1529
1530,BAJO AZANO,28.5574,-16.2138,http://www.titsa.com/correspondencias.php?idc=1530
1531,TAGANANA,28.5593,-16.2165,http://www.titsa.com/correspondencias.php?idc=1531
1532,LA CUESTILLA,28.5619,-16.2163,http://www.titsa.com/correspondencias.php?idc=1532
1533,LA FAJANETA,28.5613,-16.2157,http://www.titsa.com/correspondencias.php?idc=1533
1534,CASTAÑO,28.4218,-16.3306,http://www.titsa.com/correspondencias.php?idc=1534
1535,BAJO ROQUE,28.5642,-16.2143,http://www.titsa.com/correspondencias.php?idc=1535
1536,SUBIDA AL TABLERO,28.423,-16.3316,http://www.titsa.com/correspondencias.php?idc=1536
1537,PLAYA ROQUE LAS BODEGAS,28.5695,-16.2044,http://www.titsa.com/correspondencias.php?idc=1537
1538,LA ZARZAMORA,28.4238,-16.3337,http://www.titsa.com/correspondencias.php?idc=1538
1539,LAS BAJAS,28.5711,-16.2028,http://www.titsa.com/correspondencias.php?idc=1539
1540,CRUCE DE ALMÁCIGA,28.5722,-16.1999,http://www.titsa.com/correspondencias.php?idc=1540
1541,ALMACIGA,28.5712,-16.1989,http://www.titsa.com/correspondencias.php?idc=1541
1542,CRUCE DE ALMÁCIGA,28.5722,-16.2,http://www.titsa.com/correspondencias.php?idc=1542
1543,TURILAGO,28.4225,-16.3358,http://www.titsa.com/correspondencias.php?idc=1543
1544,LAS BAJAS,28.5712,-16.2028,http://www.titsa.com/correspondencias.php?idc=1544
1545,PLAYA ROQUE LAS BODEGAS,28.5697,-16.2043,http://www.titsa.com/correspondencias.php?idc=1545
1546,ERMITA DE MACHADO,28.4196,-16.3386,http://www.titsa.com/correspondencias.php?idc=1546
1547,BAJO ROQUE,28.5641,-16.2143,http://www.titsa.com/correspondencias.php?idc=1547
1548,LA FAJANETA,28.5612,-16.2159,http://www.titsa.com/correspondencias.php?idc=1548
1549,LACUESTILLA,28.562,-16.2162,http://www.titsa.com/correspondencias.php?idc=1549
1550,MACHADO,28.4154,-16.34,http://www.titsa.com/correspondencias.php?idc=1550
1551,TAGANANA,28.5594,-16.2166,http://www.titsa.com/correspondencias.php?idc=1551
1552,ERMITA DE MACHADO,28.4195,-16.3386,http://www.titsa.com/correspondencias.php?idc=1552
1553,BAJO ASANO,28.5575,-16.2138,http://www.titsa.com/correspondencias.php?idc=1553
1554,LA FAJANETA,28.5567,-16.2121,http://www.titsa.com/correspondencias.php?idc=1554
1555,TURILAGO,28.4225,-16.3357,http://www.titsa.com/correspondencias.php?idc=1555
1556,LA ZARZAMORA,28.4238,-16.3338,http://www.titsa.com/correspondencias.php?idc=1556
1557,SUBIDA AL TABLERO,28.4229,-16.3315,http://www.titsa.com/correspondencias.php?idc=1557
1558,CASTAÑO,28.4218,-16.3307,http://www.titsa.com/correspondencias.php?idc=1558
1559,ASPERLUA,28.4199,-16.3282,http://www.titsa.com/correspondencias.php?idc=1559
1560,LA ALBAHACA,28.418,-16.3259,http://www.titsa.com/correspondencias.php?idc=1560
1561,EL TUNEL,28.5476,-16.2032,http://www.titsa.com/correspondencias.php?idc=1561
1562,POLÍGONO LA CAMPANA,28.421,-16.3202,http://www.titsa.com/correspondencias.php?idc=1562
1563,EL CHORRILLO,28.4233,-16.3185,http://www.titsa.com/correspondencias.php?idc=1563
1564,EL CUCHILLO,28.5443,-16.2049,http://www.titsa.com/correspondencias.php?idc=1564
1565,CUATRO CAMINOS,28.4249,-16.3171,http://www.titsa.com/correspondencias.php?idc=1565
1566,CAPITANA,28.4272,-16.3138,http://www.titsa.com/correspondencias.php?idc=1566
1567,PAIBA,28.545,-16.1964,http://www.titsa.com/correspondencias.php?idc=1567
1568,SIMÚN,28.4335,-16.3106,http://www.titsa.com/correspondencias.php?idc=1568
1569,LOS PEREGRINOS (T),28.4357,-16.3077,http://www.titsa.com/correspondencias.php?idc=1569
1570,LA FILIPINA,28.5429,-16.1953,http://www.titsa.com/correspondencias.php?idc=1570
1571,EL MOLINO,28.4379,-16.3055,http://www.titsa.com/correspondencias.php?idc=1571
1572,DELFINO,28.5408,-16.1961,http://www.titsa.com/correspondencias.php?idc=1572
1573,MAXIMINO BACALLADO,28.4417,-16.3021,http://www.titsa.com/correspondencias.php?idc=1573
1574,CHO EUGENIO,28.5411,-16.2003,http://www.titsa.com/correspondencias.php?idc=1574
1575,CONCORDE,28.4436,-16.3009,http://www.titsa.com/correspondencias.php?idc=1575
1578,FUERTEVENTURA,28.4465,-16.2926,http://www.titsa.com/correspondencias.php?idc=1578
1579,LA HOYA,28.5328,-16.1987,http://www.titsa.com/correspondencias.php?idc=1579
1580,NUEVO OBRERO,28.448,-16.2878,http://www.titsa.com/correspondencias.php?idc=1580
1581,HOSPITAL LA CANDELARIA,28.4499,-16.2842,http://www.titsa.com/correspondencias.php?idc=1581
1582,CABRITAS,28.4516,-16.2818,http://www.titsa.com/correspondencias.php?idc=1582
1583,LAS DELICIAS,28.4536,-16.2796,http://www.titsa.com/correspondencias.php?idc=1583
1584,TARAJALES,28.5216,-16.1938,http://www.titsa.com/correspondencias.php?idc=1584
1588,EL CERCADO DE ANDRÉS,28.5068,-16.193,http://www.titsa.com/correspondencias.php?idc=1588
1589,ROSARIO,28.5051,-16.1936,http://www.titsa.com/correspondencias.php?idc=1589
1590,SAN ANDRES,28.5036,-16.193,http://www.titsa.com/correspondencias.php?idc=1590
1599,EL CRUCE,28.49,-16.3626,http://www.titsa.com/correspondencias.php?idc=1599
1600,LA CAÑADA,28.4868,-16.363,http://www.titsa.com/correspondencias.php?idc=1600
1601,ALFREDO HDEZ. CANINO,28.4838,-16.3634,http://www.titsa.com/correspondencias.php?idc=1601
1602,LAS VEREDAS,28.4795,-16.3638,http://www.titsa.com/correspondencias.php?idc=1602
1603,CAMINO EL RODEO,28.4757,-16.364,http://www.titsa.com/correspondencias.php?idc=1603
1604,EL ORTIGAL,28.4737,-16.3655,http://www.titsa.com/correspondencias.php?idc=1604
1605,LA MILAGROSA,28.4721,-16.3697,http://www.titsa.com/correspondencias.php?idc=1605
1606,CAMINO REAL (T),28.4716,-16.3739,http://www.titsa.com/correspondencias.php?idc=1606
1607,LAS LAJAS,28.4713,-16.3792,http://www.titsa.com/correspondencias.php?idc=1607
1608,EL CAÑERO,28.4711,-16.3831,http://www.titsa.com/correspondencias.php?idc=1608
1609,LAS ABIERTAS (T),28.47,-16.3875,http://www.titsa.com/correspondencias.php?idc=1609
1610,CARRIL ALTO,28.4697,-16.3914,http://www.titsa.com/correspondencias.php?idc=1610
1611,CAMINO DE LA CUESTA,28.4695,-16.3953,http://www.titsa.com/correspondencias.php?idc=1611
1612,CARRIL DE BILLETE,28.469,-16.3994,http://www.titsa.com/correspondencias.php?idc=1612
1613,EMETERIO GUTIERREZ,28.4677,-16.4031,http://www.titsa.com/correspondencias.php?idc=1613
1614,AGUA GARCÍA,28.4651,-16.4055,http://www.titsa.com/correspondencias.php?idc=1614
1615,HOYA DE LIRIOS (T),28.4638,-16.4089,http://www.titsa.com/correspondencias.php?idc=1615
1616,RAVELO,28.462,-16.4121,http://www.titsa.com/correspondencias.php?idc=1616
1617,CORRALETES,28.461,-16.416,http://www.titsa.com/correspondencias.php?idc=1617
1619,LA HOYA,28.4572,-16.4195,http://www.titsa.com/correspondencias.php?idc=1619
1620,LA FUENTE,28.4557,-16.4206,http://www.titsa.com/correspondencias.php?idc=1620
1621,LA CALDERA,28.4552,-16.4226,http://www.titsa.com/correspondencias.php?idc=1621
1622,CAMPO DE FUTBOL,28.4546,-16.4241,http://www.titsa.com/correspondencias.php?idc=1622
1623,SAN CRISTOBAL,28.4527,-16.4261,http://www.titsa.com/correspondencias.php?idc=1623
1624,CAMINO DEL MONTE,28.4502,-16.4282,http://www.titsa.com/correspondencias.php?idc=1624
1625,ALTOS DEL SAUZAL,28.4492,-16.4291,http://www.titsa.com/correspondencias.php?idc=1625
1626,CAMINO DEL MONTE,28.4503,-16.4281,http://www.titsa.com/correspondencias.php?idc=1626
1627,SAN CRISTOBAL,28.4527,-16.426,http://www.titsa.com/correspondencias.php?idc=1627
1628,CAMPO DE FUTBOL,28.4545,-16.4241,http://www.titsa.com/correspondencias.php?idc=1628
1629,LA CALDERA,28.4552,-16.4223,http://www.titsa.com/correspondencias.php?idc=1629
1630,LA FUENTE,28.4555,-16.4208,http://www.titsa.com/correspondencias.php?idc=1630
1631,LA HOYA,28.4573,-16.4193,http://www.titsa.com/correspondencias.php?idc=1631
1632,LOMO LAS PIEDRAS,28.4581,-16.4186,http://www.titsa.com/correspondencias.php?idc=1632
1633,CORRALETES,28.4609,-16.416,http://www.titsa.com/correspondencias.php?idc=1633
1634,REAL OROTAVA (T),28.4609,-16.419,http://www.titsa.com/correspondencias.php?idc=1634
1635,HOYA DE LA VIUDA,28.4608,-16.4223,http://www.titsa.com/correspondencias.php?idc=1635
1636,EL PINO,28.4606,-16.4261,http://www.titsa.com/correspondencias.php?idc=1636
1637,CANCELILLAS,28.4588,-16.4266,http://www.titsa.com/correspondencias.php?idc=1637
1638,LOS CESTEROS,28.4573,-16.4263,http://www.titsa.com/correspondencias.php?idc=1638
1639,VEREDA ROMERO,28.4558,-16.4269,http://www.titsa.com/correspondencias.php?idc=1639
1640,CANCELILLAS,28.4546,-16.4267,http://www.titsa.com/correspondencias.php?idc=1640
1641,CANCELILLAS,28.4544,-16.4265,http://www.titsa.com/correspondencias.php?idc=1641
1642,VEREDA ROMERO,28.4557,-16.4267,http://www.titsa.com/correspondencias.php?idc=1642
1643,LOS CESTEROS,28.4573,-16.4262,http://www.titsa.com/correspondencias.php?idc=1643
1644,CANCELILLAS,28.4588,-16.4265,http://www.titsa.com/correspondencias.php?idc=1644
1645,MONTAÑETA,28.4609,-16.4274,http://www.titsa.com/correspondencias.php?idc=1645
1646,MONTAÑETA,28.461,-16.4273,http://www.titsa.com/correspondencias.php?idc=1646
1647,EL PINO,28.4606,-16.4262,http://www.titsa.com/correspondencias.php?idc=1647
1650,RAVELO,28.4616,-16.4128,http://www.titsa.com/correspondencias.php?idc=1650
1651,HOYA DE LIRIOS (T),28.4636,-16.4089,http://www.titsa.com/correspondencias.php?idc=1651
1652,AGUA GARCÍA,28.4649,-16.4058,http://www.titsa.com/correspondencias.php?idc=1652
1653,EMETERIO GUTIERREZ,28.4676,-16.4029,http://www.titsa.com/correspondencias.php?idc=1653
1654,CARRIL DE BILLETE,28.4689,-16.3995,http://www.titsa.com/correspondencias.php?idc=1654
1655,CAMINO DE LA CUESTA,28.4695,-16.3957,http://www.titsa.com/correspondencias.php?idc=1655
1656,CARRIL ALTO,28.4696,-16.3913,http://www.titsa.com/correspondencias.php?idc=1656
1657,LAS ABIERTAS (T),28.4699,-16.3873,http://www.titsa.com/correspondencias.php?idc=1657
1658,EL CAÑERO,28.4711,-16.3828,http://www.titsa.com/correspondencias.php?idc=1658
1659,LAS LAJAS,28.4712,-16.3791,http://www.titsa.com/correspondencias.php?idc=1659
1660,CAMINO REAL (T),28.4716,-16.3736,http://www.titsa.com/correspondencias.php?idc=1660
1661,LA MILAGROSA,28.4719,-16.3697,http://www.titsa.com/correspondencias.php?idc=1661
1662,EL ORTIGAL,28.4737,-16.3654,http://www.titsa.com/correspondencias.php?idc=1662
1663,CAMINO EL RODEO,28.4757,-16.3639,http://www.titsa.com/correspondencias.php?idc=1663
1664,LAS VEREDAS,28.4795,-16.3637,http://www.titsa.com/correspondencias.php?idc=1664
1665,ALFREDO HERNÁNDEZ,28.484,-16.3633,http://www.titsa.com/correspondencias.php?idc=1665
1666,LA CAÑADA,28.4862,-16.363,http://www.titsa.com/correspondencias.php?idc=1666
1667,EL CRUCE,28.4897,-16.3625,http://www.titsa.com/correspondencias.php?idc=1667
1680,LA COCHERA,28.4961,-16.3779,http://www.titsa.com/correspondencias.php?idc=1680
1681,EL PAJAR,28.4963,-16.381,http://www.titsa.com/correspondencias.php?idc=1681
1682,EL HOYO,28.4978,-16.3835,http://www.titsa.com/correspondencias.php?idc=1682
1683,GARIMBA 48,28.4995,-16.3854,http://www.titsa.com/correspondencias.php?idc=1683
1684,CRUZ CARIDAD,28.5007,-16.388,http://www.titsa.com/correspondencias.php?idc=1684
1685,GARIMBA,28.5022,-16.3894,http://www.titsa.com/correspondencias.php?idc=1685
1686,CRUZ CARIDAD,28.5006,-16.388,http://www.titsa.com/correspondencias.php?idc=1686
1687,GARIMBA 48,28.4995,-16.3855,http://www.titsa.com/correspondencias.php?idc=1687
1688,EL HOYO,28.4978,-16.3836,http://www.titsa.com/correspondencias.php?idc=1688
1689,EL PAJAR,28.4962,-16.381,http://www.titsa.com/correspondencias.php?idc=1689
1690,LA COCHERA,28.496,-16.3777,http://www.titsa.com/correspondencias.php?idc=1690
1692,ACACIAS,28.495,-16.3749,http://www.titsa.com/correspondencias.php?idc=1692
1693,SANTA ROSA,28.4946,-16.3729,http://www.titsa.com/correspondencias.php?idc=1693
1694,LEOPOLDO MORALES,28.4927,-16.3673,http://www.titsa.com/correspondencias.php?idc=1694
1695,LA VERDELLADA,28.4824,-16.3062,http://www.titsa.com/correspondencias.php?idc=1695
1696,LA SALLE,28.4829,-16.3071,http://www.titsa.com/correspondencias.php?idc=1696
1697,BARRIO NUEVO,28.4817,-16.3089,http://www.titsa.com/correspondencias.php?idc=1697
1698,DOCTOR PASTEUR,28.4798,-16.3104,http://www.titsa.com/correspondencias.php?idc=1698
1700,CALVO SOTELO,28.4823,-16.3133,http://www.titsa.com/correspondencias.php?idc=1700
1702,EL MERCADO,28.488,-16.3137,http://www.titsa.com/correspondencias.php?idc=1702
1705,SAN JOSÉ DEL SUCULUM,28.5106,-16.1892,http://www.titsa.com/correspondencias.php?idc=1705
1709,MIRADOR,28.5122,-16.179,http://www.titsa.com/correspondencias.php?idc=1709
1710,JUANA BLANCA,28.4891,-16.3233,http://www.titsa.com/correspondencias.php?idc=1710
1711,PLAYA LAS GAVIOTAS,28.5176,-16.1752,http://www.titsa.com/correspondencias.php?idc=1711
1713,MARACAIBO,28.4844,-16.3262,http://www.titsa.com/correspondencias.php?idc=1713
1714,EL COROMOTO,28.4836,-16.3267,http://www.titsa.com/correspondencias.php?idc=1714
1715,ANDRÉS BELLO,28.4826,-16.3275,http://www.titsa.com/correspondencias.php?idc=1715
1716,CALLE CABILDO,28.4805,-16.3287,http://www.titsa.com/correspondencias.php?idc=1716
1717,VENEZUELA 95,28.4822,-16.3261,http://www.titsa.com/correspondencias.php?idc=1717
1718,VENEZUELA 79,28.4833,-16.3246,http://www.titsa.com/correspondencias.php?idc=1718
1720,BALAYO,28.5203,-16.164,http://www.titsa.com/correspondencias.php?idc=1720
1722,CAPRI,28.5241,-16.1555,http://www.titsa.com/correspondencias.php?idc=1722
1723,AVENIDA LA CANDELARIA,28.4882,-16.3257,http://www.titsa.com/correspondencias.php?idc=1723
1724,ERA VIEJA,28.5276,-16.1556,http://www.titsa.com/correspondencias.php?idc=1724
1725,LA CRUZ,28.5287,-16.1569,http://www.titsa.com/correspondencias.php?idc=1725
1726,IGUESTE DE SAN ANDRES,28.5264,-16.1544,http://www.titsa.com/correspondencias.php?idc=1726
1728,LA CRUZ,28.5287,-16.157,http://www.titsa.com/correspondencias.php?idc=1728
1730,ERA VIEJA,28.5276,-16.1557,http://www.titsa.com/correspondencias.php?idc=1730
1731,CAPRI,28.5244,-16.1557,http://www.titsa.com/correspondencias.php?idc=1731
1732,EL JUEGO,28.4867,-16.3165,http://www.titsa.com/correspondencias.php?idc=1732
1734,BALAYO,28.5204,-16.1641,http://www.titsa.com/correspondencias.php?idc=1734
1737,LOS GUANCHES,28.4779,-16.3091,http://www.titsa.com/correspondencias.php?idc=1737
1738,PLAYA LAS GAVIOTAS,28.5177,-16.1752,http://www.titsa.com/correspondencias.php?idc=1738
1739,EL DRAGO,28.4794,-16.3082,http://www.titsa.com/correspondencias.php?idc=1739
1740,ARTURO VERGARA,28.4803,-16.3085,http://www.titsa.com/correspondencias.php?idc=1740
1741,MIRADOR,28.5124,-16.1789,http://www.titsa.com/correspondencias.php?idc=1741
1743,SAN JOSÉ DEL SUCULUM,28.5112,-16.1894,http://www.titsa.com/correspondencias.php?idc=1743
1747,POLÍGONO COSTA SUR,28.4428,-16.2769,http://www.titsa.com/correspondencias.php?idc=1747
1748,HOYA FRÍA,28.4321,-16.2924,http://www.titsa.com/correspondencias.php?idc=1748
1749,SANTA MARIA DEL MAR,28.4259,-16.308,http://www.titsa.com/correspondencias.php?idc=1749
1750,ATAMÁN,28.428,-16.3081,http://www.titsa.com/correspondencias.php?idc=1750
1751,PUNTA DE ANAGA,28.4292,-16.3081,http://www.titsa.com/correspondencias.php?idc=1751
1752,TITSA,28.4303,-16.3071,http://www.titsa.com/correspondencias.php?idc=1752
1759,TEGUESTE TEATRO PRÍNCIPE FELIPE,28.5228,-16.3377,http://www.titsa.com/correspondencias.php?idc=1759
1760,TAMARAGUA,28.4282,-16.3059,http://www.titsa.com/correspondencias.php?idc=1760
1761,FELIPE DEL CASTILLO,28.5246,-16.3388,http://www.titsa.com/correspondencias.php?idc=1761
1762,LOS POBRES,28.5242,-16.3434,http://www.titsa.com/correspondencias.php?idc=1762
1763,LOS ALISIOS,28.4264,-16.3058,http://www.titsa.com/correspondencias.php?idc=1763
1764,LA CORUJA,28.4239,-16.3032,http://www.titsa.com/correspondencias.php?idc=1764
1765,LAS TOSCAS,28.5245,-16.3479,http://www.titsa.com/correspondencias.php?idc=1765
1766,TAMARCO,28.5226,-16.3496,http://www.titsa.com/correspondencias.php?idc=1766
1767,RAMBLA DE AÑAZA,28.422,-16.3025,http://www.titsa.com/correspondencias.php?idc=1767
1768,CAIROSA,28.5208,-16.3536,http://www.titsa.com/correspondencias.php?idc=1768
1769,JESÚS RAMOS GONZÁLEZ,28.4213,-16.3008,http://www.titsa.com/correspondencias.php?idc=1769
1770,AÑAZA,28.4228,-16.297,http://www.titsa.com/correspondencias.php?idc=1770
1771,ROMA,28.5203,-16.3563,http://www.titsa.com/correspondencias.php?idc=1771
1772,NISAMAR,28.4244,-16.296,http://www.titsa.com/correspondencias.php?idc=1772
1773,INSTITUTO,28.4263,-16.297,http://www.titsa.com/correspondencias.php?idc=1773
1774,PISCINA DÁCIL CABRERA,28.4272,-16.2982,http://www.titsa.com/correspondencias.php?idc=1774
1775,CENTRO COMERCIAL,28.4275,-16.3012,http://www.titsa.com/correspondencias.php?idc=1775
1776,MIRAVALA,28.5191,-16.3613,http://www.titsa.com/correspondencias.php?idc=1776
1777,EL SOCORRO,28.5172,-16.3625,http://www.titsa.com/correspondencias.php?idc=1777
1778,LOS CIPRESES,28.5136,-16.3607,http://www.titsa.com/correspondencias.php?idc=1778
1779,FRANCISCA SANTOS MELIÁN,28.5093,-16.3605,http://www.titsa.com/correspondencias.php?idc=1779
1780,VALLE MOLINA,28.5061,-16.3642,http://www.titsa.com/correspondencias.php?idc=1780
1781,LA PADILLA BAJA,28.5035,-16.3657,http://www.titsa.com/correspondencias.php?idc=1781
1782,HOYA FRÍA,28.432,-16.2908,http://www.titsa.com/correspondencias.php?idc=1782
1783,LA  PADILLA,28.4987,-16.3613,http://www.titsa.com/correspondencias.php?idc=1783
1784,POLÍGONOS,28.4453,-16.2763,http://www.titsa.com/correspondencias.php?idc=1784
1785,LA HIGUERA,28.4964,-16.3582,http://www.titsa.com/correspondencias.php?idc=1785
1786,CORAZÓN DE JESÚS,28.4935,-16.3559,http://www.titsa.com/correspondencias.php?idc=1786
1788,LAS ACACIAS,28.4923,-16.3565,http://www.titsa.com/correspondencias.php?idc=1788
1790,EL PUENTE,28.4915,-16.3562,http://www.titsa.com/correspondencias.php?idc=1790
1792,EL PUENTE,28.4913,-16.356,http://www.titsa.com/correspondencias.php?idc=1792
1794,LAS ACACIAS,28.4924,-16.3565,http://www.titsa.com/correspondencias.php?idc=1794
1795,CORAZÓN DE JESÚS,28.4938,-16.3554,http://www.titsa.com/correspondencias.php?idc=1795
1796,LA HIGUERA,28.4964,-16.3583,http://www.titsa.com/correspondencias.php?idc=1796
1797,LA PADILLA,28.499,-16.3615,http://www.titsa.com/correspondencias.php?idc=1797
1798,LA PADILLA BAJA,28.5034,-16.3657,http://www.titsa.com/correspondencias.php?idc=1798
1799,VALLE MOLINA,28.5058,-16.3644,http://www.titsa.com/correspondencias.php?idc=1799
1800,FRANCISCA SANTOS MELIÁN,28.5094,-16.3604,http://www.titsa.com/correspondencias.php?idc=1800
1801,LOS CIPRESES,28.5137,-16.3608,http://www.titsa.com/correspondencias.php?idc=1801
1802,EL SOCORRO,28.5166,-16.3625,http://www.titsa.com/correspondencias.php?idc=1802
1803,MIRAVALA,28.5192,-16.3612,http://www.titsa.com/correspondencias.php?idc=1803
1804,MARTÍN,28.4434,-16.3022,http://www.titsa.com/correspondencias.php?idc=1804
1805,LOS ÁLAMOS,28.4427,-16.3036,http://www.titsa.com/correspondencias.php?idc=1805
1806,COLEGIO DE TINCER,28.4447,-16.3044,http://www.titsa.com/correspondencias.php?idc=1806
1807,ROMA,28.5202,-16.3565,http://www.titsa.com/correspondencias.php?idc=1807
1808,LOS ESTUDIANTES,28.4458,-16.3041,http://www.titsa.com/correspondencias.php?idc=1808
1809,CAIROSA,28.5208,-16.3534,http://www.titsa.com/correspondencias.php?idc=1809
1810,TAMARCO,28.5223,-16.3497,http://www.titsa.com/correspondencias.php?idc=1810
1811,CAMINO LOS ANDENES,28.4477,-16.304,http://www.titsa.com/correspondencias.php?idc=1811
1812,VALLE INCLÁN,28.4485,-16.3048,http://www.titsa.com/correspondencias.php?idc=1812
1815,ZURBARÁN,28.4503,-16.3071,http://www.titsa.com/correspondencias.php?idc=1815
1816,HOSPITAL DE LOS DOLORES,28.4487,-16.3095,http://www.titsa.com/correspondencias.php?idc=1816
1817,PICO TEIDE,28.4474,-16.3118,http://www.titsa.com/correspondencias.php?idc=1817
1818,BERLINA,28.4447,-16.3144,http://www.titsa.com/correspondencias.php?idc=1818
1819,AIRES DE LIMA,28.4434,-16.315,http://www.titsa.com/correspondencias.php?idc=1819
1820,BERLINA,28.4449,-16.3142,http://www.titsa.com/correspondencias.php?idc=1820
1821,PICO TEIDE,28.4472,-16.3116,http://www.titsa.com/correspondencias.php?idc=1821
1823,HOSPITAL DE LOS DOLORES,28.4485,-16.3094,http://www.titsa.com/correspondencias.php?idc=1823
1824,CAMINO LOS ANDENES,28.4501,-16.3071,http://www.titsa.com/correspondencias.php?idc=1824
1825,JOSÉ VIERA Y CLAVIJO,28.4497,-16.3062,http://www.titsa.com/correspondencias.php?idc=1825
1826,VALLE INCLÁN,28.4485,-16.305,http://www.titsa.com/correspondencias.php?idc=1826
1827,CAMINO LOS ANDENES,28.4477,-16.3041,http://www.titsa.com/correspondencias.php?idc=1827
1828,LOS ESTUDIANTES,28.4455,-16.3045,http://www.titsa.com/correspondencias.php?idc=1828
1829,COLEGIO DE TINCER,28.4444,-16.3045,http://www.titsa.com/correspondencias.php?idc=1829
1830,LOS ÁLAMOS,28.4426,-16.3036,http://www.titsa.com/correspondencias.php?idc=1830
1831,IGLESIA BARRANCO GRANDE,28.4386,-16.3078,http://www.titsa.com/correspondencias.php?idc=1831
1832,PETREL,28.4382,-16.31,http://www.titsa.com/correspondencias.php?idc=1832
1833,ABUBILLA,28.4403,-16.3106,http://www.titsa.com/correspondencias.php?idc=1833
1834,COLIBRÍ,28.4404,-16.3123,http://www.titsa.com/correspondencias.php?idc=1834
1835,VERDERÓN,28.4408,-16.3143,http://www.titsa.com/correspondencias.php?idc=1835
1836,ROBIN,28.4415,-16.3165,http://www.titsa.com/correspondencias.php?idc=1836
1837,PLAZA LA PAPA,28.4405,-16.322,http://www.titsa.com/correspondencias.php?idc=1837
1838,LA JURADA,28.4394,-16.3264,http://www.titsa.com/correspondencias.php?idc=1838
1839,LAS HIGUERETAS,28.4407,-16.3277,http://www.titsa.com/correspondencias.php?idc=1839
1840,EL FRESNO,28.4429,-16.332,http://www.titsa.com/correspondencias.php?idc=1840
1841,LLANO DEL MORO,28.4422,-16.3345,http://www.titsa.com/correspondencias.php?idc=1841
1842,SALTO DEL PINO,28.4428,-16.3343,http://www.titsa.com/correspondencias.php?idc=1842
1843,EL FRESNO,28.4428,-16.3321,http://www.titsa.com/correspondencias.php?idc=1843
1844,LAS HIGUERETAS,28.4407,-16.3279,http://www.titsa.com/correspondencias.php?idc=1844
1845,LA JURADA,28.4392,-16.3263,http://www.titsa.com/correspondencias.php?idc=1845
1846,PLAZA LA PAPA,28.44,-16.3221,http://www.titsa.com/correspondencias.php?idc=1846
1847,ROBIN,28.4414,-16.3166,http://www.titsa.com/correspondencias.php?idc=1847
1848,VERDERÓN,28.4407,-16.3143,http://www.titsa.com/correspondencias.php?idc=1848
1849,COLIBRÍ,28.4403,-16.3128,http://www.titsa.com/correspondencias.php?idc=1849
1850,ABUBILLA,28.4396,-16.3106,http://www.titsa.com/correspondencias.php?idc=1850
1851,PETREL,28.4382,-16.3104,http://www.titsa.com/correspondencias.php?idc=1851
1852,IGLESIA BARRANCO GRANDE,28.4384,-16.3079,http://www.titsa.com/correspondencias.php?idc=1852
1853,MESA Y OCAMPO,28.4692,-16.2884,http://www.titsa.com/correspondencias.php?idc=1853
1854,OLVIDO,28.4725,-16.2894,http://www.titsa.com/correspondencias.php?idc=1854
1855,LOS LLANOS,28.4748,-16.2896,http://www.titsa.com/correspondencias.php?idc=1855
1856,LAS VIÑAS,28.4777,-16.2896,http://www.titsa.com/correspondencias.php?idc=1856
1857,VALLE TABARES,28.4835,-16.2899,http://www.titsa.com/correspondencias.php?idc=1857
1858,CRUZ DE GUERRA,28.4822,-16.2855,http://www.titsa.com/correspondencias.php?idc=1858
1859,CURVA LOS COCHINOS,28.4836,-16.2833,http://www.titsa.com/correspondencias.php?idc=1859
1860,VALLE JIMENEZ,28.4883,-16.2788,http://www.titsa.com/correspondencias.php?idc=1860
1861,EL POZO,28.489,-16.2782,http://www.titsa.com/correspondencias.php?idc=1861
1862,EL FICUS,28.495,-16.2727,http://www.titsa.com/correspondencias.php?idc=1862
1863,LOMO LAS CASILLAS,28.4933,-16.2719,http://www.titsa.com/correspondencias.php?idc=1863
1864,LOMO LAS CASILLAS,28.4929,-16.2718,http://www.titsa.com/correspondencias.php?idc=1864
1865,EL FICUS,28.4951,-16.2726,http://www.titsa.com/correspondencias.php?idc=1865
1866,EL POZO,28.492,-16.276,http://www.titsa.com/correspondencias.php?idc=1866
1867,VALLE JIMENEZ,28.4882,-16.279,http://www.titsa.com/correspondencias.php?idc=1867
1868,CURVA LOS COCHINOS,28.4836,-16.2834,http://www.titsa.com/correspondencias.php?idc=1868
1869,CRUZ DE GUERRA,28.4822,-16.2856,http://www.titsa.com/correspondencias.php?idc=1869
1870,VALLE TABARES,28.4836,-16.2899,http://www.titsa.com/correspondencias.php?idc=1870
1871,LAS VIÑAS,28.4778,-16.2899,http://www.titsa.com/correspondencias.php?idc=1871
1872,LOS LLANOS,28.4751,-16.2897,http://www.titsa.com/correspondencias.php?idc=1872
1873,OLVIDO,28.4723,-16.2896,http://www.titsa.com/correspondencias.php?idc=1873
1874,MESA Y OCAMPO,28.4699,-16.2897,http://www.titsa.com/correspondencias.php?idc=1874
1875,EL ROCIO,28.4737,-16.2799,http://www.titsa.com/correspondencias.php?idc=1875
1876,JOSÉ ESCOBEDO,28.4708,-16.2821,http://www.titsa.com/correspondencias.php?idc=1876
1877,MACHADO Y FIESCO,28.4706,-16.2852,http://www.titsa.com/correspondencias.php?idc=1877
1879,ARMONÍA,28.4724,-16.2871,http://www.titsa.com/correspondencias.php?idc=1879
1880,ALVARADO Y BRACAMONTE,28.4721,-16.2852,http://www.titsa.com/correspondencias.php?idc=1880
1881,MARQUÉS DE BAJAMAR,28.4718,-16.2836,http://www.titsa.com/correspondencias.php?idc=1881
1882,MARIA AUXILIADORA,28.4704,-16.2835,http://www.titsa.com/correspondencias.php?idc=1882
1883,CENTRO DE SALUD,28.4699,-16.2821,http://www.titsa.com/correspondencias.php?idc=1883
1884,GARACHICO,28.4717,-16.2799,http://www.titsa.com/correspondencias.php?idc=1884
1885,LA PICONERA,28.4456,-16.2944,http://www.titsa.com/correspondencias.php?idc=1885
1886,PADRE MANJON,28.4438,-16.2965,http://www.titsa.com/correspondencias.php?idc=1886
1887,SAN NICOLÁS,28.4427,-16.2962,http://www.titsa.com/correspondencias.php?idc=1887
1888,SAN AGUSTÍN,28.4404,-16.2951,http://www.titsa.com/correspondencias.php?idc=1888
1889,SANTA MARTA,28.4391,-16.2954,http://www.titsa.com/correspondencias.php?idc=1889
1890,SAN PABLO,28.4378,-16.2967,http://www.titsa.com/correspondencias.php?idc=1890
1891,SAN PATRICIO,28.4375,-16.2978,http://www.titsa.com/correspondencias.php?idc=1891
1892,SAN MATIAS,28.4393,-16.2972,http://www.titsa.com/correspondencias.php?idc=1892
1893,JORGE BERNARDINO,28.4398,-16.2979,http://www.titsa.com/correspondencias.php?idc=1893
1894,SAN NICOLÁS,28.442,-16.2966,http://www.titsa.com/correspondencias.php?idc=1894
1895,SANTO TOMÁS DE AQUINO,28.4439,-16.2972,http://www.titsa.com/correspondencias.php?idc=1895
1896,SAN ISIDRO,28.4538,-16.3001,http://www.titsa.com/correspondencias.php?idc=1896
1897,SAN ALEJANDRO,28.4547,-16.301,http://www.titsa.com/correspondencias.php?idc=1897
1898,POLIDEPORTIVO,28.4564,-16.3008,http://www.titsa.com/correspondencias.php?idc=1898
1899,LA LIBERTAD,28.4578,-16.3023,http://www.titsa.com/correspondencias.php?idc=1899
1900,LA LIBERTAD,28.4576,-16.3025,http://www.titsa.com/correspondencias.php?idc=1900
1903,LAS MORADITAS DE TACO,28.4463,-16.2909,http://www.titsa.com/correspondencias.php?idc=1903
1905,CIP. MARÍA ROSA ALONSO,28.4819,-16.4107,http://www.titsa.com/correspondencias.php?idc=1905
1906,GUARDIA CIVIL,28.4844,-16.4109,http://www.titsa.com/correspondencias.php?idc=1906
1907,CALLEJÓN GRANDE,28.4867,-16.4092,http://www.titsa.com/correspondencias.php?idc=1907
1908,LOS PERALES (T),28.4941,-16.4085,http://www.titsa.com/correspondencias.php?idc=1908
1909,MERCADO DEL AGRICULTOR,28.4993,-16.4071,http://www.titsa.com/correspondencias.php?idc=1909
1910,SAN JUAN PERALES,28.5006,-16.4065,http://www.titsa.com/correspondencias.php?idc=1910
1911,SAN JUAN,28.503,-16.4046,http://www.titsa.com/correspondencias.php?idc=1911
1912,CRUZ DE TAGORO,28.5062,-16.4027,http://www.titsa.com/correspondencias.php?idc=1912
1913,PRESAS OCAMPO,28.5097,-16.4002,http://www.titsa.com/correspondencias.php?idc=1913
1914,FIELATO (T),28.5113,-16.3977,http://www.titsa.com/correspondencias.php?idc=1914
1915,PARAISO,28.5122,-16.3938,http://www.titsa.com/correspondencias.php?idc=1915
1916,DON JAVIER,28.5145,-16.3862,http://www.titsa.com/correspondencias.php?idc=1916
1917,VALLE GUERRA,28.5163,-16.3916,http://www.titsa.com/correspondencias.php?idc=1917
1918,EL ROSARIO (T),28.5176,-16.3893,http://www.titsa.com/correspondencias.php?idc=1918
1919,EL LOMO,28.5209,-16.3841,http://www.titsa.com/correspondencias.php?idc=1919
1920,MOYA,28.5213,-16.3829,http://www.titsa.com/correspondencias.php?idc=1920
1921,LA HERREÑA,28.5247,-16.3789,http://www.titsa.com/correspondencias.php?idc=1921
1922,LA AGRÍCOLA,28.5255,-16.376,http://www.titsa.com/correspondencias.php?idc=1922
1923,PALENZUELA,28.5283,-16.3735,http://www.titsa.com/correspondencias.php?idc=1923
1924,CENTRO DE SALUD,28.5329,-16.3694,http://www.titsa.com/correspondencias.php?idc=1924
1925,INSTITUTO,28.5335,-16.3654,http://www.titsa.com/correspondencias.php?idc=1925
1926,FELIPE CASTILLO (T),28.5339,-16.3635,http://www.titsa.com/correspondencias.php?idc=1926
1927,INSTITUTO,28.5336,-16.3654,http://www.titsa.com/correspondencias.php?idc=1927
1928,CENTRO DE SALUD,28.5329,-16.3696,http://www.titsa.com/correspondencias.php?idc=1928
1929,PALENZUELA,28.5279,-16.3738,http://www.titsa.com/correspondencias.php?idc=1929
1930,LA AGRÍCOLA,28.5255,-16.3764,http://www.titsa.com/correspondencias.php?idc=1930
1931,LA HERREÑA,28.5246,-16.3792,http://www.titsa.com/correspondencias.php?idc=1931
1932,MOYA,28.5213,-16.3831,http://www.titsa.com/correspondencias.php?idc=1932
1933,EL LOMO,28.5209,-16.3843,http://www.titsa.com/correspondencias.php?idc=1933
1934,EL ROSARIO (T),28.5173,-16.3898,http://www.titsa.com/correspondencias.php?idc=1934
1935,VALLE GUERRA,28.5165,-16.3918,http://www.titsa.com/correspondencias.php?idc=1935
1936,DON JAVIER,28.5146,-16.3868,http://www.titsa.com/correspondencias.php?idc=1936
1937,LA CARTA,28.5135,-16.3912,http://www.titsa.com/correspondencias.php?idc=1937
1938,PARAISO,28.5122,-16.3939,http://www.titsa.com/correspondencias.php?idc=1938
1939,FIELATO (T),28.5111,-16.3981,http://www.titsa.com/correspondencias.php?idc=1939
1940,PRESAS OCAMPO,28.5097,-16.4003,http://www.titsa.com/correspondencias.php?idc=1940
1941,CRUZ DE TAGORO,28.506,-16.403,http://www.titsa.com/correspondencias.php?idc=1941
1942,SAN JUAN,28.5031,-16.4046,http://www.titsa.com/correspondencias.php?idc=1942
1943,SAN JUAN PERALES,28.5007,-16.4066,http://www.titsa.com/correspondencias.php?idc=1943
1944,MERCADO DEL AGRICULTOR,28.4991,-16.4073,http://www.titsa.com/correspondencias.php?idc=1944
1945,LOS PERALES (T),28.4941,-16.4086,http://www.titsa.com/correspondencias.php?idc=1945
1946,CALLEJÓN GRANDE,28.487,-16.4092,http://www.titsa.com/correspondencias.php?idc=1946
1947,GUARDIA CIVIL,28.4844,-16.411,http://www.titsa.com/correspondencias.php?idc=1947
1948,EL CRISTO,28.4814,-16.4111,http://www.titsa.com/correspondencias.php?idc=1948
1949,CAPITOL,28.4777,-16.4144,http://www.titsa.com/correspondencias.php?idc=1949
1950,TACORONTE (T),28.4752,-16.4161,http://www.titsa.com/correspondencias.php?idc=1950
1951,ISMAEL DOMÍNGUEZ,28.4766,-16.4167,http://www.titsa.com/correspondencias.php?idc=1951
1952,POLIDEPORTIVO,28.4788,-16.4176,http://www.titsa.com/correspondencias.php?idc=1952
1957,ERNESTO CASTRO,28.496,-16.409,http://www.titsa.com/correspondencias.php?idc=1957
1958,PARQUE MESA DEL MAR,28.4989,-16.4134,http://www.titsa.com/correspondencias.php?idc=1958
1959,CAMINO LA ARENA CRUCE,28.5002,-16.4183,http://www.titsa.com/correspondencias.php?idc=1959
1960,GUAYONJE,28.5017,-16.4212,http://www.titsa.com/correspondencias.php?idc=1960
1962,PLAYA MESA DEL MAR,28.5026,-16.4241,http://www.titsa.com/correspondencias.php?idc=1962
1964,GUAYONJE,28.5011,-16.4214,http://www.titsa.com/correspondencias.php?idc=1964
1965,CAMINO LA ARENA,28.5001,-16.4184,http://www.titsa.com/correspondencias.php?idc=1965
1966,PARQUE MESA DEL MAR,28.4984,-16.4136,http://www.titsa.com/correspondencias.php?idc=1966
1967,ERNESTO CASTRO,28.4957,-16.4087,http://www.titsa.com/correspondencias.php?idc=1967
1970,EL DRAGUILLO (T),28.4366,-16.3005,http://www.titsa.com/correspondencias.php?idc=1970
1971,EL MOLINO,28.44,-16.3041,http://www.titsa.com/correspondencias.php?idc=1971
1972,TINCER,28.4454,-16.3082,http://www.titsa.com/correspondencias.php?idc=1972
1973,MONTAÑA PACHO,28.4558,-16.3075,http://www.titsa.com/correspondencias.php?idc=1973
1974,CENTRO COMERCIAL,28.4643,-16.3051,http://www.titsa.com/correspondencias.php?idc=1974
1976,TINCER,28.4451,-16.3084,http://www.titsa.com/correspondencias.php?idc=1976
1977,EL MOLINO,28.4401,-16.3053,http://www.titsa.com/correspondencias.php?idc=1977
1978,CUEVAS BLANCAS,28.4271,-16.3043,http://www.titsa.com/correspondencias.php?idc=1978
1979,HERRERIA,28.4843,-16.414,http://www.titsa.com/correspondencias.php?idc=1979
1980,CUATRO CAMINOS,28.4865,-16.4158,http://www.titsa.com/correspondencias.php?idc=1980
1981,GUAYONJE,28.4891,-16.4182,http://www.titsa.com/correspondencias.php?idc=1981
1982,LA SABINA,28.4901,-16.4211,http://www.titsa.com/correspondencias.php?idc=1982
1983,ESCUELA AGRARIA,28.4951,-16.4201,http://www.titsa.com/correspondencias.php?idc=1983
1984,CAMINO LA ARENA,28.5,-16.4185,http://www.titsa.com/correspondencias.php?idc=1984
1985,BARRANCO SAN JUÁN,28.5045,-16.4167,http://www.titsa.com/correspondencias.php?idc=1985
1986,PUERTO  DE LA MADERA,28.5069,-16.416,http://www.titsa.com/correspondencias.php?idc=1986
1987,JUAN FERNANDEZ,28.511,-16.4163,http://www.titsa.com/correspondencias.php?idc=1987
1988,PUNTA EL VIENTO,28.5152,-16.4177,http://www.titsa.com/correspondencias.php?idc=1988
1989,TELÉMACO,28.5093,-16.42,http://www.titsa.com/correspondencias.php?idc=1989
1990,EL PRIS,28.51,-16.4211,http://www.titsa.com/correspondencias.php?idc=1990
1991,TELÉMACO,28.5092,-16.4201,http://www.titsa.com/correspondencias.php?idc=1991
1992,PUNTA EL VIENTO,28.5153,-16.4174,http://www.titsa.com/correspondencias.php?idc=1992
1993,TAGORO BAJO,28.5156,-16.4117,http://www.titsa.com/correspondencias.php?idc=1993
1994,TAGORO ALTO,28.5132,-16.41,http://www.titsa.com/correspondencias.php?idc=1994
1995,CÁNDIDO LÓPEZ TRUJILLO,28.5107,-16.409,http://www.titsa.com/correspondencias.php?idc=1995
1996,JUANITA DORTA,28.5101,-16.4087,http://www.titsa.com/correspondencias.php?idc=1996
1997,TAGORO ALTO,28.5128,-16.4096,http://www.titsa.com/correspondencias.php?idc=1997
1998,TAGORO BAJO,28.5156,-16.4118,http://www.titsa.com/correspondencias.php?idc=1998
1999,JUAN FERNANDEZ,28.5111,-16.4164,http://www.titsa.com/correspondencias.php?idc=1999
2000,PUERTO  DE LA MADERA,28.5069,-16.4161,http://www.titsa.com/correspondencias.php?idc=2000
2001,BARRANCO SAN JUÁN,28.5044,-16.4168,http://www.titsa.com/correspondencias.php?idc=2001
2002,CAMINO LA ARENA,28.5002,-16.4186,http://www.titsa.com/correspondencias.php?idc=2002
2003,ESCUELA AGRARIA,28.4952,-16.4202,http://www.titsa.com/correspondencias.php?idc=2003
2004,LA SABINA,28.49,-16.4211,http://www.titsa.com/correspondencias.php?idc=2004
2005,GUAYONJE,28.4891,-16.4184,http://www.titsa.com/correspondencias.php?idc=2005
2006,CUATRO CAMINOS,28.4864,-16.4158,http://www.titsa.com/correspondencias.php?idc=2006
2007,HERRERIA,28.4842,-16.414,http://www.titsa.com/correspondencias.php?idc=2007
2008,CASA DE VENEZUELA,28.4711,-16.3124,http://www.titsa.com/correspondencias.php?idc=2008
2009,GUAJARA,28.4683,-16.3116,http://www.titsa.com/correspondencias.php?idc=2009
2010,SAN BARTOLOMÉ,28.4643,-16.3091,http://www.titsa.com/correspondencias.php?idc=2010
2011,ACHAMÁN,28.4597,-16.3081,http://www.titsa.com/correspondencias.php?idc=2011
2012,EL VECINO,28.4581,-16.3086,http://www.titsa.com/correspondencias.php?idc=2012
2013,BOCATUERTA,28.4561,-16.3095,http://www.titsa.com/correspondencias.php?idc=2013
2014,EL GRAMAL,28.4504,-16.3094,http://www.titsa.com/correspondencias.php?idc=2014
2016,SAN FÉLIX,28.4532,-16.2985,http://www.titsa.com/correspondencias.php?idc=2016
2018,SAN FÉLIX,28.4533,-16.299,http://www.titsa.com/correspondencias.php?idc=2018
2019,LOS ANDENES,28.4495,-16.3076,http://www.titsa.com/correspondencias.php?idc=2019
2020,TIRSO DE MOLINA,28.4512,-16.3092,http://www.titsa.com/correspondencias.php?idc=2020
2021,EL VECINO,28.4579,-16.3082,http://www.titsa.com/correspondencias.php?idc=2021
2022,ACHAMÁN,28.4596,-16.3075,http://www.titsa.com/correspondencias.php?idc=2022
2023,SAN BARTOLOMÉ,28.4648,-16.3094,http://www.titsa.com/correspondencias.php?idc=2023
2024,GUAJARA,28.4682,-16.3115,http://www.titsa.com/correspondencias.php?idc=2024
2025,CASA DE VENEZUELA,28.4712,-16.3123,http://www.titsa.com/correspondencias.php?idc=2025
2026,LORA Y TAMAYO,28.4772,-16.3137,http://www.titsa.com/correspondencias.php?idc=2026
2027,LAS CHUMBERAS,28.4634,-16.3037,http://www.titsa.com/correspondencias.php?idc=2027
2029,SAN VICENTE,28.4557,-16.298,http://www.titsa.com/correspondencias.php?idc=2029
2030,EL HIERRO,28.4459,-16.2973,http://www.titsa.com/correspondencias.php?idc=2030
2031,SANTO TOMÁS DE AQUINO,28.4438,-16.2974,http://www.titsa.com/correspondencias.php?idc=2031
2032,SAN FLORENCIO,28.4568,-16.3001,http://www.titsa.com/correspondencias.php?idc=2032
2033,LA HORNERA,28.4585,-16.3046,http://www.titsa.com/correspondencias.php?idc=2033
2034,SAN VICENTE,28.4558,-16.2978,http://www.titsa.com/correspondencias.php?idc=2034
2039,CAMINO LAS PERAS,28.4969,-16.3114,http://www.titsa.com/correspondencias.php?idc=2039
2040,MADRE DEL AGUA,28.4993,-16.3092,http://www.titsa.com/correspondencias.php?idc=2040
2041,CAMINO DE LAS MERCEDES,28.5018,-16.3069,http://www.titsa.com/correspondencias.php?idc=2041
2042,EL CORAL,28.5035,-16.3053,http://www.titsa.com/correspondencias.php?idc=2042
2043,EL RAYO,28.5049,-16.304,http://www.titsa.com/correspondencias.php?idc=2043
2044,DECROLY,28.5073,-16.3019,http://www.titsa.com/correspondencias.php?idc=2044
2045,CRUZ DE LOS ÁLAMOS,28.5099,-16.2998,http://www.titsa.com/correspondencias.php?idc=2045
2046,POLLO LAS CANTERAS,28.5114,-16.2998,http://www.titsa.com/correspondencias.php?idc=2046
2047,CAMINO LAS MERCEDES 211,28.5128,-16.2988,http://www.titsa.com/correspondencias.php?idc=2047
2048,CAMINO LAS MERCEDES 231,28.5152,-16.2976,http://www.titsa.com/correspondencias.php?idc=2048
2049,VEREDA DEL LLANO,28.5172,-16.2958,http://www.titsa.com/correspondencias.php?idc=2049
2050,VUELTAS BLANCAS,28.5192,-16.2953,http://www.titsa.com/correspondencias.php?idc=2050
2051,VUELTAS BLANCAS,28.5191,-16.2952,http://www.titsa.com/correspondencias.php?idc=2051
2052,VEREDA DEL LLANO,28.5172,-16.2956,http://www.titsa.com/correspondencias.php?idc=2052
2053,CAMINO LAS MERCEDES 231,28.5155,-16.2975,http://www.titsa.com/correspondencias.php?idc=2053
2054,CAMINO LAS MERCEDES 211,28.5129,-16.2988,http://www.titsa.com/correspondencias.php?idc=2054
2055,POLLO LAS CANTERAS,28.5116,-16.2996,http://www.titsa.com/correspondencias.php?idc=2055
2056,CRUZ DE LOS ÁLAMOS,28.5098,-16.2997,http://www.titsa.com/correspondencias.php?idc=2056
2057,DECROLY,28.5076,-16.3017,http://www.titsa.com/correspondencias.php?idc=2057
2058,EL RAYO,28.505,-16.3041,http://www.titsa.com/correspondencias.php?idc=2058
2059,EL CORAL,28.5034,-16.3055,http://www.titsa.com/correspondencias.php?idc=2059
2060,CAMINO DE LAS MERCEDES,28.5017,-16.3069,http://www.titsa.com/correspondencias.php?idc=2060
2061,MADRE DEL AGUA,28.4994,-16.3092,http://www.titsa.com/correspondencias.php?idc=2061
2062,CAMINO LAS PERAS,28.4972,-16.3111,http://www.titsa.com/correspondencias.php?idc=2062
2063,GONZALIANEZ,28.513,-16.2961,http://www.titsa.com/correspondencias.php?idc=2063
2064,CAMINO JARDINA,28.5144,-16.2948,http://www.titsa.com/correspondencias.php?idc=2064
2065,IGLESIA DE JARDINA,28.5156,-16.2916,http://www.titsa.com/correspondencias.php?idc=2065
2066,EL MAGO,28.5165,-16.2887,http://www.titsa.com/correspondencias.php?idc=2066
2067,CENTRO CIUDADANO,28.5173,-16.2873,http://www.titsa.com/correspondencias.php?idc=2067
2068,FLOR,28.5185,-16.2862,http://www.titsa.com/correspondencias.php?idc=2068
2069,EL PINAR,28.5195,-16.2862,http://www.titsa.com/correspondencias.php?idc=2069
2070,JARDINA,28.5205,-16.2856,http://www.titsa.com/correspondencias.php?idc=2070
2071,EL PINAR,28.5194,-16.2865,http://www.titsa.com/correspondencias.php?idc=2071
2072,FLOR,28.5182,-16.2863,http://www.titsa.com/correspondencias.php?idc=2072
2073,CENTRO CIUDADANO,28.5174,-16.2874,http://www.titsa.com/correspondencias.php?idc=2073
2074,EL MAGO,28.5166,-16.2888,http://www.titsa.com/correspondencias.php?idc=2074
2075,IGLESIA DE JARDINA,28.5157,-16.2915,http://www.titsa.com/correspondencias.php?idc=2075
2076,CAMINO JARDINA,28.5146,-16.2947,http://www.titsa.com/correspondencias.php?idc=2076
2077,GONZALIANEZ,28.5128,-16.2963,http://www.titsa.com/correspondencias.php?idc=2077
2078,LA TIMPLINA,28.5133,-16.3058,http://www.titsa.com/correspondencias.php?idc=2078
2079,ROJAS,28.5145,-16.3032,http://www.titsa.com/correspondencias.php?idc=2079
2080,CLEMENTE VERA,28.5158,-16.3009,http://www.titsa.com/correspondencias.php?idc=2080
2081,TRANSMERSA,28.5177,-16.2981,http://www.titsa.com/correspondencias.php?idc=2081
2082,VUELTAS BLANCAS,28.5199,-16.2959,http://www.titsa.com/correspondencias.php?idc=2082
2083,LAS MERCEDES,28.5211,-16.2951,http://www.titsa.com/correspondencias.php?idc=2083
2084,SANTO LABRADOR,28.5228,-16.2937,http://www.titsa.com/correspondencias.php?idc=2084
2085,LAS CASAS,28.525,-16.2916,http://www.titsa.com/correspondencias.php?idc=2085
2086,MADRE DEL AGUA,28.5262,-16.2894,http://www.titsa.com/correspondencias.php?idc=2086
2087,LAS CASAS,28.525,-16.2919,http://www.titsa.com/correspondencias.php?idc=2087
2088,SANTO LABRADOR,28.5228,-16.2934,http://www.titsa.com/correspondencias.php?idc=2088
2089,LAS MERCEDES,28.5213,-16.295,http://www.titsa.com/correspondencias.php?idc=2089
2090,VUELTAS BLANCAS,28.5198,-16.2962,http://www.titsa.com/correspondencias.php?idc=2090
2091,TRANSMERSA,28.5179,-16.298,http://www.titsa.com/correspondencias.php?idc=2091
2092,CLEMENTE VERA,28.5159,-16.3008,http://www.titsa.com/correspondencias.php?idc=2092
2093,ROJAS,28.5146,-16.3031,http://www.titsa.com/correspondencias.php?idc=2093
2094,LA TIMPLINA,28.5133,-16.3059,http://www.titsa.com/correspondencias.php?idc=2094
2096,FACULTAD DE QUÍMICA,28.4808,-16.323,http://www.titsa.com/correspondencias.php?idc=2096
2097,EL BERNEGAL,28.4724,-16.3242,http://www.titsa.com/correspondencias.php?idc=2097
2098,COLEGIO LOS BALDÍOS,28.4685,-16.3267,http://www.titsa.com/correspondencias.php?idc=2098
2099,CAMINO LA FRESCURA,28.4663,-16.3273,http://www.titsa.com/correspondencias.php?idc=2099
2100,IGLESIA DE LOS BALDÍOS,28.4644,-16.3275,http://www.titsa.com/correspondencias.php?idc=2100
2101,LAS MEDIANÍAS,28.4607,-16.3282,http://www.titsa.com/correspondencias.php?idc=2101
2102,LA CAPIRONA,28.4577,-16.3292,http://www.titsa.com/correspondencias.php?idc=2102
2103,EL CENTENERO,28.455,-16.3306,http://www.titsa.com/correspondencias.php?idc=2103
2104,MARREROS,28.4522,-16.3306,http://www.titsa.com/correspondencias.php?idc=2104
2105,LA ZAPATERA,28.4496,-16.3304,http://www.titsa.com/correspondencias.php?idc=2105
2106,EL MOLLERO,28.448,-16.3306,http://www.titsa.com/correspondencias.php?idc=2106
2107,HOYA EL PAJAR,28.4456,-16.3324,http://www.titsa.com/correspondencias.php?idc=2107
2108,HOYA EL PAJAR,28.4453,-16.3325,http://www.titsa.com/correspondencias.php?idc=2108
2109,EL MOLLERO,28.4478,-16.3305,http://www.titsa.com/correspondencias.php?idc=2109
2110,LA ZAPATERA,28.4495,-16.3303,http://www.titsa.com/correspondencias.php?idc=2110
2111,MARREROS,28.4522,-16.3305,http://www.titsa.com/correspondencias.php?idc=2111
2112,LA CAPIRONA,28.4552,-16.3305,http://www.titsa.com/correspondencias.php?idc=2112
2113,LA CAPIRONA,28.4577,-16.3291,http://www.titsa.com/correspondencias.php?idc=2113
2114,LAS MEDIANÍAS,28.4607,-16.328,http://www.titsa.com/correspondencias.php?idc=2114
2115,IGLESIA DE LOS BALDÍOS,28.4643,-16.3274,http://www.titsa.com/correspondencias.php?idc=2115
2116,CAMINO LA FRESCURA,28.4663,-16.3272,http://www.titsa.com/correspondencias.php?idc=2116
2117,COLEGIO LOS BALDÍOS,28.4688,-16.3265,http://www.titsa.com/correspondencias.php?idc=2117
2118,EL BERNEGAL,28.4724,-16.3241,http://www.titsa.com/correspondencias.php?idc=2118
2119,FACULTAD DE QUÍMICA,28.4808,-16.3229,http://www.titsa.com/correspondencias.php?idc=2119
2120,EL PORTILLO,28.454,-16.326,http://www.titsa.com/correspondencias.php?idc=2120
2121,LA GERIA,28.4527,-16.3258,http://www.titsa.com/correspondencias.php?idc=2121
2122,ALDEAS INFANTILES,28.4284,-16.3418,http://www.titsa.com/correspondencias.php?idc=2122
2123,ESCUELA TECNICA,28.4792,-16.3183,http://www.titsa.com/correspondencias.php?idc=2123
2124,MAYBER,28.4766,-16.3183,http://www.titsa.com/correspondencias.php?idc=2124
2125,EL CUBANITO,28.4744,-16.3179,http://www.titsa.com/correspondencias.php?idc=2125
2126,FERIA,28.4722,-16.3172,http://www.titsa.com/correspondencias.php?idc=2126
2127,RODRÍGUEZ GALVÁN,28.4687,-16.3172,http://www.titsa.com/correspondencias.php?idc=2127
2128,CAMPO DE FUTBOL,28.466,-16.3165,http://www.titsa.com/correspondencias.php?idc=2128
2129,SAN JOSÉ,28.4618,-16.3158,http://www.titsa.com/correspondencias.php?idc=2129
2130,EL PINO,28.4594,-16.315,http://www.titsa.com/correspondencias.php?idc=2130
2131,EL MORALITO,28.4572,-16.3152,http://www.titsa.com/correspondencias.php?idc=2131
2132,SERRERÍA,28.4549,-16.3178,http://www.titsa.com/correspondencias.php?idc=2132
2133,LA PICONERA,28.4535,-16.3193,http://www.titsa.com/correspondencias.php?idc=2133
2134,LOS ANDENES,28.4519,-16.3199,http://www.titsa.com/correspondencias.php?idc=2134
2135,EL POLVORIN,28.4474,-16.3183,http://www.titsa.com/correspondencias.php?idc=2135
2136,EL GUINCHO,28.445,-16.3172,http://www.titsa.com/correspondencias.php?idc=2136
2137,FAISÁN,28.4431,-16.3168,http://www.titsa.com/correspondencias.php?idc=2137
2138,FAISÁN,28.443,-16.3167,http://www.titsa.com/correspondencias.php?idc=2138
2139,EL GUINCHO,28.4452,-16.3172,http://www.titsa.com/correspondencias.php?idc=2139
2140,EL POLVORIN,28.4475,-16.3183,http://www.titsa.com/correspondencias.php?idc=2140
2141,LOS ANDENES,28.4518,-16.3196,http://www.titsa.com/correspondencias.php?idc=2141
2142,LA PICONERA,28.4537,-16.3189,http://www.titsa.com/correspondencias.php?idc=2142
2143,SERRERÍA,28.4551,-16.3174,http://www.titsa.com/correspondencias.php?idc=2143
2144,EL MORALITO,28.458,-16.3148,http://www.titsa.com/correspondencias.php?idc=2144
2145,EL PINO,28.4597,-16.3151,http://www.titsa.com/correspondencias.php?idc=2145
2146,SAN JOSÉ,28.462,-16.3158,http://www.titsa.com/correspondencias.php?idc=2146
2147,CAMPO DE FUTBOL,28.4653,-16.3163,http://www.titsa.com/correspondencias.php?idc=2147
2148,RODRÍGUEZ GALVÁN,28.4689,-16.3171,http://www.titsa.com/correspondencias.php?idc=2148
2149,FERIA,28.4723,-16.3171,http://www.titsa.com/correspondencias.php?idc=2149
2150,EL CUBANITO,28.4746,-16.3179,http://www.titsa.com/correspondencias.php?idc=2150
2151,MAYBER,28.4763,-16.3182,http://www.titsa.com/correspondencias.php?idc=2151
2152,ESCUELA TECNICA,28.4788,-16.3182,http://www.titsa.com/correspondencias.php?idc=2152
2154,JESÚS JIMÉNEZ,28.5152,-16.3095,http://www.titsa.com/correspondencias.php?idc=2154
2155,LAS LAJAS,28.5158,-16.3124,http://www.titsa.com/correspondencias.php?idc=2155
2156,FARIA,28.517,-16.3136,http://www.titsa.com/correspondencias.php?idc=2156
2157,LAS PITERAS,28.5197,-16.3156,http://www.titsa.com/correspondencias.php?idc=2157
2158,PEDRO ÁLVAREZ (T),28.5215,-16.3172,http://www.titsa.com/correspondencias.php?idc=2158
2159,CAMINO HONDO,28.519,-16.3207,http://www.titsa.com/correspondencias.php?idc=2159
2160,LOS BARRIALES,28.5186,-16.3232,http://www.titsa.com/correspondencias.php?idc=2160
2161,LOS BARRIALES,28.5186,-16.3233,http://www.titsa.com/correspondencias.php?idc=2161
2162,CAMINO HONDO,28.5189,-16.3206,http://www.titsa.com/correspondencias.php?idc=2162
2163,PEDRO ÁLVAREZ (T),28.5215,-16.3169,http://www.titsa.com/correspondencias.php?idc=2163
2164,LAS PITERAS,28.5195,-16.3156,http://www.titsa.com/correspondencias.php?idc=2164
2165,FARIA,28.517,-16.3137,http://www.titsa.com/correspondencias.php?idc=2165
2166,LAS LAJAS,28.5158,-16.3125,http://www.titsa.com/correspondencias.php?idc=2166
2167,JESÚS JIMÉNEZ,28.5151,-16.3094,http://www.titsa.com/correspondencias.php?idc=2167
2168,LOS NUÑEZ,28.5144,-16.3084,http://www.titsa.com/correspondencias.php?idc=2168
2169,LUNA LLENA,28.4896,-16.3418,http://www.titsa.com/correspondencias.php?idc=2169
2170,EL GOFIO (T),28.49,-16.3332,http://www.titsa.com/correspondencias.php?idc=2170
2171,CRUZ DE LA GALLEGA,28.4261,-16.3169,http://www.titsa.com/correspondencias.php?idc=2171
2173,BIGUPALA,28.4296,-16.3175,http://www.titsa.com/correspondencias.php?idc=2173
2174,DON DIEGO,28.4295,-16.3195,http://www.titsa.com/correspondencias.php?idc=2174
2176,BIGUPALA,28.4295,-16.3176,http://www.titsa.com/correspondencias.php?idc=2176
2177,GIRASOL,28.4281,-16.3174,http://www.titsa.com/correspondencias.php?idc=2177
2178,CRUZ DE LA GALLEGA,28.4261,-16.317,http://www.titsa.com/correspondencias.php?idc=2178
2179,LA FAROLA,28.376,-16.3677,http://www.titsa.com/correspondencias.php?idc=2179
2180,LAS MORRAS,28.3785,-16.3681,http://www.titsa.com/correspondencias.php?idc=2180
2181,LA GUANCHA,28.3805,-16.3689,http://www.titsa.com/correspondencias.php?idc=2181
2182,COLEGIO DE IGUESTE,28.3823,-16.3687,http://www.titsa.com/correspondencias.php?idc=2182
2183,SAN JUAN,28.3811,-16.37,http://www.titsa.com/correspondencias.php?idc=2183
2184,VIÑATIGO,28.38,-16.3709,http://www.titsa.com/correspondencias.php?idc=2184
2185,DIMAS,28.379,-16.373,http://www.titsa.com/correspondencias.php?idc=2185
2186,ANTONIO GARCÍA PÉREZ,28.3798,-16.3728,http://www.titsa.com/correspondencias.php?idc=2186
2187,AJOREÑA,28.3808,-16.3729,http://www.titsa.com/correspondencias.php?idc=2187
2188,ESTEBAN COELLO PESTANO,28.3825,-16.3732,http://www.titsa.com/correspondencias.php?idc=2188
2189,IGUESTE,28.3823,-16.3741,http://www.titsa.com/correspondencias.php?idc=2189
2190,ESTEBAN COELLO PESTANO,28.3824,-16.3733,http://www.titsa.com/correspondencias.php?idc=2190
2191,AJOREÑA,28.3807,-16.3725,http://www.titsa.com/correspondencias.php?idc=2191
2192,ANTONIO GARCÍA PÉREZ,28.3799,-16.3729,http://www.titsa.com/correspondencias.php?idc=2192
2193,DIMAS COELLO,28.3789,-16.3729,http://www.titsa.com/correspondencias.php?idc=2193
2194,VIÑATIGO,28.3798,-16.371,http://www.titsa.com/correspondencias.php?idc=2194
2195,SAN JUAN,28.3812,-16.3699,http://www.titsa.com/correspondencias.php?idc=2195
2196,COLEGIO DE IGUESTE,28.382,-16.369,http://www.titsa.com/correspondencias.php?idc=2196
2197,LA GUANCHA,28.3806,-16.369,http://www.titsa.com/correspondencias.php?idc=2197
2198,LAS MORRAS,28.3784,-16.3682,http://www.titsa.com/correspondencias.php?idc=2198
2199,LA FAROLA,28.3765,-16.3679,http://www.titsa.com/correspondencias.php?idc=2199
2200,SALA TENERIFE SUR (T),28.3998,-16.3512,http://www.titsa.com/correspondencias.php?idc=2200
2201,RUBÉN MARICHAL,28.3959,-16.3507,http://www.titsa.com/correspondencias.php?idc=2201
2206,LA CASONA DEL VINO,28.3816,-16.3661,http://www.titsa.com/correspondencias.php?idc=2206
2207,LLANO LOS VIEJOS,28.5265,-16.2853,http://www.titsa.com/correspondencias.php?idc=2207
2208,MARÍA DEL CARMEN (T),28.3749,-16.369,http://www.titsa.com/correspondencias.php?idc=2208
2209,MIRADOR DE JARDINA,28.524,-16.288,http://www.titsa.com/correspondencias.php?idc=2209
2210,LOS BATANES,28.5298,-16.2858,http://www.titsa.com/correspondencias.php?idc=2210
2211,CRUCE EL MOQUINAL,28.5355,-16.3009,http://www.titsa.com/correspondencias.php?idc=2211
2212,LOMOS DE ARENA,28.3735,-16.3709,http://www.titsa.com/correspondencias.php?idc=2212
2213,CRUZ COLORADA,28.371,-16.3718,http://www.titsa.com/correspondencias.php?idc=2213
2214,CANARINA,28.3664,-16.3745,http://www.titsa.com/correspondencias.php?idc=2214
2215,CRUCE BEJIAS,28.5434,-16.2985,http://www.titsa.com/correspondencias.php?idc=2215
2216,LOS OLIVOS,28.364,-16.3743,http://www.titsa.com/correspondencias.php?idc=2216
2219,EL BATÁN,28.5478,-16.2968,http://www.titsa.com/correspondencias.php?idc=2219
2225,CRUCE BEJIAS,28.5434,-16.2984,http://www.titsa.com/correspondencias.php?idc=2225
2227,LOMO DEL CABALLO,28.3427,-16.3818,http://www.titsa.com/correspondencias.php?idc=2227
2228,CRUCE EL MOQUINAL,28.5356,-16.301,http://www.titsa.com/correspondencias.php?idc=2228
2229,LOS BATANES,28.5299,-16.2859,http://www.titsa.com/correspondencias.php?idc=2229
2230,MIRADOR DE JARDINA,28.5241,-16.2879,http://www.titsa.com/correspondencias.php?idc=2230
2232,CRUZ DEL CARMEN,28.5314,-16.2798,http://www.titsa.com/correspondencias.php?idc=2232
2233,PICO INGLES,28.5331,-16.2641,http://www.titsa.com/correspondencias.php?idc=2233
2234,CRUZ DEL CARMEN,28.5315,-16.28,http://www.titsa.com/correspondencias.php?idc=2234
2235,CRUCE PICO EL INGLES,28.535,-16.273,http://www.titsa.com/correspondencias.php?idc=2235
2236,LAS CARBONERAS,28.5388,-16.2676,http://www.titsa.com/correspondencias.php?idc=2236
2237,EL RIO,28.5402,-16.2764,http://www.titsa.com/correspondencias.php?idc=2237
2238,CABEZA TOROS,28.5442,-16.2805,http://www.titsa.com/correspondencias.php?idc=2238
2239,LAS ESCALERAS,28.5468,-16.2791,http://www.titsa.com/correspondencias.php?idc=2239
2240,CRUCE DE TABORNO,28.5444,-16.275,http://www.titsa.com/correspondencias.php?idc=2240
2241,LAS CARBONERAS,28.5539,-16.277,http://www.titsa.com/correspondencias.php?idc=2241
2242,LA RECONDA,28.3411,-16.3847,http://www.titsa.com/correspondencias.php?idc=2242
2243,LA PEDRERA,28.339,-16.3903,http://www.titsa.com/correspondencias.php?idc=2243
2244,LA HIDALGA (T),28.3341,-16.395,http://www.titsa.com/correspondencias.php?idc=2244
2245,SAN FRANCISCO JAVIER,28.3312,-16.3987,http://www.titsa.com/correspondencias.php?idc=2245
2246,LAS CRUCES,28.3246,-16.4016,http://www.titsa.com/correspondencias.php?idc=2246
2247,GÜÍMAR,28.3189,-16.4086,http://www.titsa.com/correspondencias.php?idc=2247
2248,LAS CRUCES,28.3243,-16.4017,http://www.titsa.com/correspondencias.php?idc=2248
2249,SAN FRANCISCO JAVIER,28.3298,-16.3991,http://www.titsa.com/correspondencias.php?idc=2249
2250,LA HIDALGA (T),28.3336,-16.3954,http://www.titsa.com/correspondencias.php?idc=2250
2251,LA PEDRERA,28.3389,-16.3903,http://www.titsa.com/correspondencias.php?idc=2251
2252,LA RECONDA,28.3411,-16.3845,http://www.titsa.com/correspondencias.php?idc=2252
2253,LOMO DEL CABALLO,28.3427,-16.3816,http://www.titsa.com/correspondencias.php?idc=2253
2254,ICERSE,28.3463,-16.3807,http://www.titsa.com/correspondencias.php?idc=2254
2255,GUARRAJO,28.348,-16.3827,http://www.titsa.com/correspondencias.php?idc=2255
2256,EL FALSETE,28.3502,-16.3799,http://www.titsa.com/correspondencias.php?idc=2256
2257,JUAN DÍAZ,28.3531,-16.38,http://www.titsa.com/correspondencias.php?idc=2257
2258,LOS GUIRRES,28.3545,-16.3795,http://www.titsa.com/correspondencias.php?idc=2258
2259,CHIGUERNO,28.3576,-16.3788,http://www.titsa.com/correspondencias.php?idc=2259
2260,EL TAGORO,28.3592,-16.3768,http://www.titsa.com/correspondencias.php?idc=2260
2261,AROBA (T),28.3614,-16.3753,http://www.titsa.com/correspondencias.php?idc=2261
2262,LOS OLIVOS,28.3634,-16.3742,http://www.titsa.com/correspondencias.php?idc=2262
2263,CANARINA,28.3666,-16.3744,http://www.titsa.com/correspondencias.php?idc=2263
2264,CRUZ COLORADA,28.3707,-16.372,http://www.titsa.com/correspondencias.php?idc=2264
2265,LOMOS DE ARENA,28.3735,-16.3707,http://www.titsa.com/correspondencias.php?idc=2265
2266,MARÍA DEL CARMEN (T),28.3749,-16.3686,http://www.titsa.com/correspondencias.php?idc=2266
2272,RUBÉN MARICHAL,28.396,-16.3506,http://www.titsa.com/correspondencias.php?idc=2272
2273,SALA TENERIFE SUR (T),28.3997,-16.351,http://www.titsa.com/correspondencias.php?idc=2273
2274,CRUCE DE TABORNO,28.5447,-16.2752,http://www.titsa.com/correspondencias.php?idc=2274
2275,TABORNO,28.5552,-16.2649,http://www.titsa.com/correspondencias.php?idc=2275
2276,LAS ESCALERAS,28.5469,-16.279,http://www.titsa.com/correspondencias.php?idc=2276
2277,CABEZA TOROS,28.5439,-16.2808,http://www.titsa.com/correspondencias.php?idc=2277
2278,EL RIO,28.5402,-16.2765,http://www.titsa.com/correspondencias.php?idc=2278
2279,CRUCE CARBONERAS,28.5386,-16.2685,http://www.titsa.com/correspondencias.php?idc=2279
2280,CRUCE PICO EL INGLES,28.5351,-16.2729,http://www.titsa.com/correspondencias.php?idc=2280
2281,MADRE DEL AGUA,28.5263,-16.2895,http://www.titsa.com/correspondencias.php?idc=2281
2282,EL MONTE,28.5348,-16.2627,http://www.titsa.com/correspondencias.php?idc=2282
2283,CRUCE DE  AFUR,28.5332,-16.2524,http://www.titsa.com/correspondencias.php?idc=2283
2284,LOS CATALANES,28.534,-16.2467,http://www.titsa.com/correspondencias.php?idc=2284
2285,LAS CASAS LA CUMBRE,28.5359,-16.2361,http://www.titsa.com/correspondencias.php?idc=2285
2286,CASA FORESTAL,28.5417,-16.229,http://www.titsa.com/correspondencias.php?idc=2286
2287,LAS CASAS LA CUMBRE,28.536,-16.236,http://www.titsa.com/correspondencias.php?idc=2287
2288,LOS CATALANES,28.5339,-16.2468,http://www.titsa.com/correspondencias.php?idc=2288
2289,CRUCE DE AFUR,28.5335,-16.252,http://www.titsa.com/correspondencias.php?idc=2289
2290,ROQUE NEGRO,28.5386,-16.2494,http://www.titsa.com/correspondencias.php?idc=2290
2291,IGLESIA DE ROQUE NEGRO,28.5427,-16.247,http://www.titsa.com/correspondencias.php?idc=2291
2292,LA CASA AZUL,28.5454,-16.2442,http://www.titsa.com/correspondencias.php?idc=2292
2293,EL NENE,28.5508,-16.241,http://www.titsa.com/correspondencias.php?idc=2293
2294,SALTO DEL ENCERRADERO,28.5514,-16.238,http://www.titsa.com/correspondencias.php?idc=2294
2295,EL SALTO,28.5551,-16.2417,http://www.titsa.com/correspondencias.php?idc=2295
2296,AFUR,28.5556,-16.2476,http://www.titsa.com/correspondencias.php?idc=2296
2297,EL SALTO,28.555,-16.2419,http://www.titsa.com/correspondencias.php?idc=2297
2298,SALTO DEL ENCERRADERO,28.5513,-16.2382,http://www.titsa.com/correspondencias.php?idc=2298
2299,EL NENE,28.5507,-16.2417,http://www.titsa.com/correspondencias.php?idc=2299
2300,LA CASA AZUL,28.5455,-16.2442,http://www.titsa.com/correspondencias.php?idc=2300
2301,IGLESIA DE ROQUE NEGRO,28.5427,-16.2471,http://www.titsa.com/correspondencias.php?idc=2301
2302,ROQUE NEGRO,28.5387,-16.2494,http://www.titsa.com/correspondencias.php?idc=2302
2303,CRUCE DE AFUR,28.5334,-16.252,http://www.titsa.com/correspondencias.php?idc=2303
2304,CRUCE DE AFUR,28.5333,-16.2525,http://www.titsa.com/correspondencias.php?idc=2304
2305,EL MONTE,28.5348,-16.2626,http://www.titsa.com/correspondencias.php?idc=2305
2307,RICARDO MELCHIDA BOOTH,28.5171,-16.3921,http://www.titsa.com/correspondencias.php?idc=2307
2308,ABREU,28.518,-16.3947,http://www.titsa.com/correspondencias.php?idc=2308
2309,REDADERA,28.5199,-16.3958,http://www.titsa.com/correspondencias.php?idc=2309
2310,LAS TOSCAS,28.5222,-16.3966,http://www.titsa.com/correspondencias.php?idc=2310
2311,SAN ROQUE,28.5221,-16.395,http://www.titsa.com/correspondencias.php?idc=2311
2312,ÁNIMAS LOMARQUE,28.5217,-16.3922,http://www.titsa.com/correspondencias.php?idc=2312
2313,IES VALLE GUERRA,28.5214,-16.3902,http://www.titsa.com/correspondencias.php?idc=2313
2314,EL PINO,28.5224,-16.3868,http://www.titsa.com/correspondencias.php?idc=2314
2315,HOMICIAN,28.5232,-16.3835,http://www.titsa.com/correspondencias.php?idc=2315
2316,LA BARRANQUERA,28.5244,-16.3822,http://www.titsa.com/correspondencias.php?idc=2316
2317,EL CANTILLO,28.5266,-16.3801,http://www.titsa.com/correspondencias.php?idc=2317
2318,PARED GRANDE,28.5282,-16.3816,http://www.titsa.com/correspondencias.php?idc=2318
2319,IGNACIO PÉREZ GARCÍA,28.5338,-16.3875,http://www.titsa.com/correspondencias.php?idc=2319
2320,LA CALETA,28.5387,-16.3943,http://www.titsa.com/correspondencias.php?idc=2320
2321,LA BARRANQUERA,28.5369,-16.3962,http://www.titsa.com/correspondencias.php?idc=2321
2322,LA CALETA,28.5386,-16.3942,http://www.titsa.com/correspondencias.php?idc=2322
2323,IGNACIO PÉREZ GARCÍA,28.5329,-16.3865,http://www.titsa.com/correspondencias.php?idc=2323
2324,PARED GRANDE,28.5281,-16.3816,http://www.titsa.com/correspondencias.php?idc=2324
2325,EL CANTILLO,28.5266,-16.3803,http://www.titsa.com/correspondencias.php?idc=2325
2326,LA BARRANQUERA,28.5249,-16.382,http://www.titsa.com/correspondencias.php?idc=2326
2327,PADRE HERRERA,28.4851,-16.3137,http://www.titsa.com/correspondencias.php?idc=2327
2328,ARTURO VERGARA,28.4802,-16.3087,http://www.titsa.com/correspondencias.php?idc=2328
2329,ESCUELA DE IDIOMAS,28.4796,-16.3071,http://www.titsa.com/correspondencias.php?idc=2329
2330,PUEBLO HINOJOSA,28.4752,-16.3025,http://www.titsa.com/correspondencias.php?idc=2330
2331,CARLOS SANZ CID,28.4773,-16.3019,http://www.titsa.com/correspondencias.php?idc=2331
2332,MAYANTIGO,28.4756,-16.2975,http://www.titsa.com/correspondencias.php?idc=2332
2333,AÑATEN,28.4735,-16.2941,http://www.titsa.com/correspondencias.php?idc=2333
2334,CISNEROS,28.4744,-16.291,http://www.titsa.com/correspondencias.php?idc=2334
2335,EL OLVIDO,28.4725,-16.2893,http://www.titsa.com/correspondencias.php?idc=2335
2337,JOSÉ DOMINGUEZ DORTA,28.4692,-16.2833,http://www.titsa.com/correspondencias.php?idc=2337
2339,BREÑA ALTA,28.471,-16.2878,http://www.titsa.com/correspondencias.php?idc=2339
2340,CAMINO LA PITERITA,28.474,-16.2916,http://www.titsa.com/correspondencias.php?idc=2340
2341,AÑATEN,28.4737,-16.2943,http://www.titsa.com/correspondencias.php?idc=2341
2342,MAYANTIGO,28.4757,-16.2973,http://www.titsa.com/correspondencias.php?idc=2342
2343,CARLOS SANZ CID,28.4774,-16.302,http://www.titsa.com/correspondencias.php?idc=2343
2344,PUEBLO HINOJOSA,28.4752,-16.3026,http://www.titsa.com/correspondencias.php?idc=2344
2345,JORGE MANRIQUE,28.4799,-16.3067,http://www.titsa.com/correspondencias.php?idc=2345
2346,QUINTERAS,28.4867,-16.3129,http://www.titsa.com/correspondencias.php?idc=2346
2354,PORTADA DEL DUQUE,28.4283,-16.3129,http://www.titsa.com/correspondencias.php?idc=2354
2355,CAPITANA,28.4272,-16.3141,http://www.titsa.com/correspondencias.php?idc=2355
2356,SANTA MARÍA DEL MAR (T),28.427,-16.3033,http://www.titsa.com/correspondencias.php?idc=2356
2357,CRUZ DEL SEÑOR,28.4647,-16.2711,http://www.titsa.com/correspondencias.php?idc=2357
2358,BENTACAYSE (T),28.4258,-16.3026,http://www.titsa.com/correspondencias.php?idc=2358
2362,JUAN CABRERA,28.4378,-16.3063,http://www.titsa.com/correspondencias.php?idc=2362
2363,MISTRAL,28.4253,-16.31,http://www.titsa.com/correspondencias.php?idc=2363
2364,SANTA MARIA DEL MAR,28.4258,-16.3083,http://www.titsa.com/correspondencias.php?idc=2364
2365,SANTA MARIA DEL MAR,28.4257,-16.308,http://www.titsa.com/correspondencias.php?idc=2365
2366,MISTRAL,28.4254,-16.3099,http://www.titsa.com/correspondencias.php?idc=2366
2367,PORTADA  DEL DUQUE,28.4277,-16.3127,http://www.titsa.com/correspondencias.php?idc=2367
2368,AEROCLUB DE TENERIFE (T),28.4897,-16.3534,http://www.titsa.com/correspondencias.php?idc=2368
2369,PUENTE LA CENTINELA,28.4902,-16.357,http://www.titsa.com/correspondencias.php?idc=2369
2370,LA CRUZ CHICA (T),28.4907,-16.3615,http://www.titsa.com/correspondencias.php?idc=2370
2371,LA CRUZ CHICA,28.4907,-16.3632,http://www.titsa.com/correspondencias.php?idc=2371
2372,VERGARA,28.4904,-16.3669,http://www.titsa.com/correspondencias.php?idc=2372
2373,ANTONIO MARCELINO,28.4904,-16.3694,http://www.titsa.com/correspondencias.php?idc=2373
2374,ANTONIO MARCELINO,28.4903,-16.3697,http://www.titsa.com/correspondencias.php?idc=2374
2375,VERGARA,28.4903,-16.3665,http://www.titsa.com/correspondencias.php?idc=2375
2377,LA CRUZ CHICA (T),28.4906,-16.3615,http://www.titsa.com/correspondencias.php?idc=2377
2378,LA CENTINELA,28.4901,-16.3569,http://www.titsa.com/correspondencias.php?idc=2378
2379,AEROCLUB DE TENERIFE (T),28.4897,-16.3536,http://www.titsa.com/correspondencias.php?idc=2379
2382,MARTÍN,28.4435,-16.3018,http://www.titsa.com/correspondencias.php?idc=2382
2383,ROSARIO,28.5049,-16.1933,http://www.titsa.com/correspondencias.php?idc=2383
2384,BARRANCO GRANDE,28.4366,-16.3067,http://www.titsa.com/correspondencias.php?idc=2384
2385,EL PERÚ,28.4642,-16.2749,http://www.titsa.com/correspondencias.php?idc=2385
2386,EL PERÚ,28.4644,-16.275,http://www.titsa.com/correspondencias.php?idc=2386
2393,CAMPUS DE GUAJARA (T),28.4665,-16.3041,http://www.titsa.com/correspondencias.php?idc=2393
2394,ALTAGAY,28.5685,-16.3318,http://www.titsa.com/correspondencias.php?idc=2394
2395,CARRETERA LAS CANTERAS,28.5085,-16.3097,http://www.titsa.com/correspondencias.php?idc=2395
2396,LAS CANTERAS (T),28.5118,-16.3063,http://www.titsa.com/correspondencias.php?idc=2396
2397,LAS CANTERAS (T),28.5116,-16.3066,http://www.titsa.com/correspondencias.php?idc=2397
2398,CARRETERA LAS CANTERAS,28.5082,-16.31,http://www.titsa.com/correspondencias.php?idc=2398
2399,LLANO LOS VIEJOS,28.5266,-16.2852,http://www.titsa.com/correspondencias.php?idc=2399
2400,EUGENIO NIEBLA,28.4723,-16.28,http://www.titsa.com/correspondencias.php?idc=2400
2401,INMACULADA CONCEPCIÓN,28.4798,-16.4354,http://www.titsa.com/correspondencias.php?idc=2401
2402,LAS CHUMBERAS,28.4634,-16.3039,http://www.titsa.com/correspondencias.php?idc=2402
2403,CAMPUS DE GUAJARA,28.4687,-16.3014,http://www.titsa.com/correspondencias.php?idc=2403
2404,AULARIO,28.4717,-16.3002,http://www.titsa.com/correspondencias.php?idc=2404
2405,CAMPUS DE GUAJARA,28.4688,-16.3016,http://www.titsa.com/correspondencias.php?idc=2405
2406,CAMPUS DE GUAJARA (T),28.4672,-16.3033,http://www.titsa.com/correspondencias.php?idc=2406
2409,SAN ANTONIO,28.4883,-16.3233,http://www.titsa.com/correspondencias.php?idc=2409
2414,EL TABLERO,28.4251,-16.3365,http://www.titsa.com/correspondencias.php?idc=2414
2415,MARCELINO PERDOMO,28.4855,-16.3254,http://www.titsa.com/correspondencias.php?idc=2415
2418,INTERCAMBIADOR STA.CRUZ,28.4592,-16.2513,http://www.titsa.com/correspondencias.php?idc=2418
2420,PUERTO DE RADAZUL,28.4017,-16.3223,http://www.titsa.com/correspondencias.php?idc=2420
2421,JUAN PEREZ,28.4879,-16.3988,http://www.titsa.com/correspondencias.php?idc=2421
2422,EL ADELANTADO,28.4895,-16.4008,http://www.titsa.com/correspondencias.php?idc=2422
2423,PARQUE DEL ADELANTADO,28.4867,-16.4023,http://www.titsa.com/correspondencias.php?idc=2423
2424,SALTO DEL PINO,28.4428,-16.3341,http://www.titsa.com/correspondencias.php?idc=2424
2425,DELGADO BARRETO,28.482,-16.3157,http://www.titsa.com/correspondencias.php?idc=2425
2431,6 DE DICIEMBRE,28.4876,-16.3197,http://www.titsa.com/correspondencias.php?idc=2431
2435,CRUCE DE TACO,28.4463,-16.2995,http://www.titsa.com/correspondencias.php?idc=2435
2442,SAN JUAN DE DIOS,28.4626,-16.2824,http://www.titsa.com/correspondencias.php?idc=2442
2444,ASTROFÍSICO FCO SÁNCHEZ,28.4813,-16.3208,http://www.titsa.com/correspondencias.php?idc=2444
2445,POZO CABILDO,28.4989,-16.3156,http://www.titsa.com/correspondencias.php?idc=2445
2446,PASEO DE LOS ORAMAS,28.4956,-16.3194,http://www.titsa.com/correspondencias.php?idc=2446
2447,MARCOS REDONDO,28.4926,-16.3221,http://www.titsa.com/correspondencias.php?idc=2447
2448,PUNTA DEL DRAGO,28.4318,-16.3097,http://www.titsa.com/correspondencias.php?idc=2448
2449,PUNTA DE LA MANCHA,28.4311,-16.3109,http://www.titsa.com/correspondencias.php?idc=2449
2450,SIROCO,28.4281,-16.3106,http://www.titsa.com/correspondencias.php?idc=2450
2451,PUNTA DE TENO,28.4288,-16.3095,http://www.titsa.com/correspondencias.php?idc=2451
2452,PUNTA EL JURADO,28.4301,-16.3083,http://www.titsa.com/correspondencias.php?idc=2452
2454,GUAJARA,28.4677,-16.3057,http://www.titsa.com/correspondencias.php?idc=2454
2455,EL CRISTO,28.4924,-16.3124,http://www.titsa.com/correspondencias.php?idc=2455
2456,CAÑAVERAL,28.4944,-16.3112,http://www.titsa.com/correspondencias.php?idc=2456
2457,LA RUA,28.4964,-16.3091,http://www.titsa.com/correspondencias.php?idc=2457
2458,PUENTE DEL BRONCO,28.4979,-16.3083,http://www.titsa.com/correspondencias.php?idc=2458
2459,EL BRONCO,28.4979,-16.3065,http://www.titsa.com/correspondencias.php?idc=2459
2460,LOMO LARGO,28.498,-16.3044,http://www.titsa.com/correspondencias.php?idc=2460
2461,EL LAUREL,28.5003,-16.3007,http://www.titsa.com/correspondencias.php?idc=2461
2462,LOMO LARGO,28.498,-16.3047,http://www.titsa.com/correspondencias.php?idc=2462
2463,EL BRONCO,28.498,-16.3065,http://www.titsa.com/correspondencias.php?idc=2463
2464,PUENTE DEL BRONCO,28.4984,-16.3082,http://www.titsa.com/correspondencias.php?idc=2464
2465,LOS ROSALES,28.5006,-16.3054,http://www.titsa.com/correspondencias.php?idc=2465
2466,HUARACHEROS,28.5037,-16.3027,http://www.titsa.com/correspondencias.php?idc=2466
2467,CHINCANAIROS,28.5053,-16.3007,http://www.titsa.com/correspondencias.php?idc=2467
2468,ACHAMÁN,28.5065,-16.3011,http://www.titsa.com/correspondencias.php?idc=2468
2473,PISTA MILITAR SAN ROQUE,28.492,-16.3108,http://www.titsa.com/correspondencias.php?idc=2473
2474,SAN LÁZARO,28.4897,-16.3288,http://www.titsa.com/correspondencias.php?idc=2474
2475,CAMINO SAN LÁZARO,28.4893,-16.3322,http://www.titsa.com/correspondencias.php?idc=2475
2476,EL RODEO,28.4887,-16.3344,http://www.titsa.com/correspondencias.php?idc=2476
2477,EL MADROÑO,28.4878,-16.3365,http://www.titsa.com/correspondencias.php?idc=2477
2478,CAMINO LA VILLA,28.4839,-16.3396,http://www.titsa.com/correspondencias.php?idc=2478
2479,LA VILLA,28.4839,-16.3354,http://www.titsa.com/correspondencias.php?idc=2479
2480,TAJARASTE,28.4853,-16.3302,http://www.titsa.com/correspondencias.php?idc=2480
2481,TENEGUÍA,28.4858,-16.3263,http://www.titsa.com/correspondencias.php?idc=2481
2482,LOZOYA,28.4846,-16.3236,http://www.titsa.com/correspondencias.php?idc=2482
2483,AMANECER,28.491,-16.3335,http://www.titsa.com/correspondencias.php?idc=2483
2484,CAMINO AMANECER,28.4932,-16.3361,http://www.titsa.com/correspondencias.php?idc=2484
2485,ELÍAS YANES,28.4939,-16.3331,http://www.titsa.com/correspondencias.php?idc=2485
2486,TORNERO,28.4937,-16.3305,http://www.titsa.com/correspondencias.php?idc=2486
2491,CONCEPCIÓN SALAZAR,28.4965,-16.3161,http://www.titsa.com/correspondencias.php?idc=2491
2492,SILVERIO ALONSO,28.4922,-16.3176,http://www.titsa.com/correspondencias.php?idc=2492
2493,LUCAS VEGA,28.4913,-16.3198,http://www.titsa.com/correspondencias.php?idc=2493
2494,ALTAMIRA,28.4305,-16.3203,http://www.titsa.com/correspondencias.php?idc=2494
2495,ROTONDA DEL LITRE,28.433,-16.3176,http://www.titsa.com/correspondencias.php?idc=2495
2496,INSTITUTO EL SOBRADILLO,28.4368,-16.3163,http://www.titsa.com/correspondencias.php?idc=2496
2497,EL TENIQUE,28.4386,-16.3133,http://www.titsa.com/correspondencias.php?idc=2497
2498,ROTONDA LAS HESPERIDES,28.44,-16.311,http://www.titsa.com/correspondencias.php?idc=2498
2499,INSTITUTO VEREDILLAS,28.4418,-16.3094,http://www.titsa.com/correspondencias.php?idc=2499
2500,EL CEDRO,28.4454,-16.3061,http://www.titsa.com/correspondencias.php?idc=2500
2501,EL TIMPLE,28.4468,-16.3044,http://www.titsa.com/correspondencias.php?idc=2501
2502,EL TIMPLE,28.4467,-16.3045,http://www.titsa.com/correspondencias.php?idc=2502
2503,CRUZ DE TINCER,28.446,-16.3058,http://www.titsa.com/correspondencias.php?idc=2503
2504,INSTITUTO VEREDILLAS,28.442,-16.3095,http://www.titsa.com/correspondencias.php?idc=2504
2505,ROTONDA LAS HESPERIDES,28.44,-16.3113,http://www.titsa.com/correspondencias.php?idc=2505
2506,EL TENIQUE,28.4388,-16.3132,http://www.titsa.com/correspondencias.php?idc=2506
2507,INSTITUTO EL SOBRADILLO,28.4369,-16.3163,http://www.titsa.com/correspondencias.php?idc=2507
2508,ROTONDA DEL LITRE,28.4327,-16.3181,http://www.titsa.com/correspondencias.php?idc=2508
2509,CERCADO CORAZÓN,28.4309,-16.3209,http://www.titsa.com/correspondencias.php?idc=2509
2510,ZURRÓN,28.4948,-16.3291,http://www.titsa.com/correspondencias.php?idc=2510
2511,LAS GAVIAS,28.4976,-16.3317,http://www.titsa.com/correspondencias.php?idc=2511
2512,MIGUEL MELO BENITO,28.4966,-16.332,http://www.titsa.com/correspondencias.php?idc=2512
2513,SANSÓN BARROS,28.4582,-16.2707,http://www.titsa.com/correspondencias.php?idc=2513
2514,GARCÍA LORCA,28.457,-16.2709,http://www.titsa.com/correspondencias.php?idc=2514
